[
  {
    "name": "Mambo Bar Cocktails Club",
    "road": "",
    "address 1": "",
    "address 2": "",
    "location": "Madrid",
    "province": "",
    "address": "C. de Núñez de Arce, 14, 28012",
    "coordinates": "40.4152641, -3.7041004",
    "lat": "40.4152641",
    "lng": "-3.7041004"
  },
  {
    "name": "Serendipia La Caza Endulzada",
    "road": "",
    "address 1": "",
    "address 2": "",
    "location": "Madrid",
    "province": "",
    "address": "C. de San Bartolomé, 21, 28004 Madrid",
    "coordinates": "40.422141, -3.7011048",
    "lat": "40.422141",
    "lng": "-3.7011048"
  },
  {
    "name": "Hotel California",
    "road": "",
    "address 1": "",
    "address 2": "",
    "location": "Madrid",
    "province": "",
    "address": "C. de San Vicente Ferrer, 28, 28004 Madrid",
    "coordinates": "40.42579, -3.7062982",
    "lat": "40.42579",
    "lng": "-3.7062982"
  },
  {
    "name": "La Taberna de La Copla",
    "road": "",
    "address 1": "",
    "address 2": "",
    "location": "Madrid",
    "province": "",
    "address": "C/ de Jesús del Valle, 1, 28004 Madrid",
    "coordinates": "40.4239697, -3.7075826",
    "lat": "40.4239697",
    "lng": "-3.7075826"
  },
  {
    "name": "TAPERÍA EL PUNTO",
    "road": "URBANIZACION",
    "address 1": "Manga Beach",
    "address 2": "Bloque 5",
    "location": "SAN JAVIER",
    "province": "MURCIA",
    "address": "URBANIZACION Manga Beach Bloque 5 SAN JAVIER MURCIA",
    "coordinates": "37.6866202, -0.735771",
    "lat": 37.6866202,
    "lng": -0.735771
  },
  {
    "name": "RESTAURANTE CIEN BEACH",
    "road": "CALLE",
    "address 1": "Campoamor",
    "address 2": "99",
    "location": "SAN PEDRO DEL PINATAR",
    "province": "MURCIA",
    "address": "CALLE Campoamor 99 SAN PEDRO DEL PINATAR MURCIA",
    "coordinates": "37.820166, -0.7795734999999999",
    "lat": 37.820166,
    "lng": -0.7795735
  },
  {
    "name": "La Rosa Lía",
    "road": "Calle",
    "address 1": "Manuela Malasaña",
    "address 2": "16",
    "location": "Madrid",
    "province": "Madrid",
    "address": "Calle Manuela Malasaña 16 Madrid Madrid",
    "coordinates": "40.4288779, -3.7042239",
    "lat": 40.4288779,
    "lng": -3.7042239
  },
  {
    "name": "HOTEL CHAMARTÍN THE ONE",
    "road": "Calle",
    "address 1": "Agustin de foxa",
    "address 2": "S/N",
    "location": "Madrid",
    "province": "Madrid",
    "address": "Calle Agustin de foxa S/N Madrid Madrid",
    "coordinates": "40.4737593, -3.6831447",
    "lat": 40.4737593,
    "lng": -3.6831447
  },
  {
    "name": "THE FAR POST",
    "road": "CALLE",
    "address 1": "MERIDA DE JARALES (LOCAL)",
    "address 2": "41/42",
    "location": "CALAHONDA",
    "province": "MALAGA",
    "address": "CALLE MERIDA DE JARALES (LOCAL) 41/42 CALAHONDA MALAGA",
    "coordinates": "36.4892503, -4.7184859",
    "lat": 36.4892503,
    "lng": -4.7184859
  },
  {
    "name": "KAHUNA`S",
    "road": "CALLE",
    "address 1": "REAL",
    "address 2": "2",
    "location": "ESTEPONA",
    "province": "MALAGA",
    "address": "CALLE REAL 2 ESTEPONA MALAGA",
    "coordinates": "36.427064, -5.1410791",
    "lat": 36.427064,
    "lng": -5.1410791
  },
  {
    "name": "IRISHMAN´S",
    "road": "CALLE",
    "address 1": "HALCON MALTES",
    "address 2": "1",
    "location": "BENAHAVIS",
    "province": "MALAGA",
    "address": "CALLE HALCON MALTES 1 BENAHAVIS MALAGA",
    "coordinates": "36.5123817, -5.0049608",
    "lat": 36.5123817,
    "lng": -5.0049608
  },
  {
    "name": "FADÓ IRISH BAR",
    "road": "AVENIDA",
    "address 1": "GAMONAL (PLAZA BONANZA)",
    "address 2": "LOCAL 9",
    "location": "BENALMADENA",
    "province": "MALAGA",
    "address": "AVENIDA GAMONAL (PLAZA BONANZA) LOCAL 9 BENALMADENA MALAGA",
    "coordinates": "36.5967799, -4.5276083",
    "lat": 36.5967799,
    "lng": -4.5276083
  },
  {
    "name": "OUR BAR",
    "road": "CENTRO COMERCIAL",
    "address 1": "EL ZOCO",
    "address 2": "39/40",
    "location": "CALAHONDA",
    "province": "MALAGA",
    "address": "CENTRO COMERCIAL EL ZOCO 39/40 CALAHONDA MALAGA",
    "coordinates": "36.4898336, -4.7143388",
    "lat": 36.4898336,
    "lng": -4.7143388
  },
  {
    "name": "DON SANTIAGO RESTOBAR",
    "road": "PASEO",
    "address 1": "MARITIMO REY DE ESPAÑA",
    "address 2": "116",
    "location": "FUENGIROLA",
    "province": "MALAGA",
    "address": "PASEO MARITIMO REY DE ESPAÑA 116 FUENGIROLA MALAGA",
    "coordinates": "36.5636986, -4.6035167",
    "lat": 36.5636986,
    "lng": -4.6035167
  },
  {
    "name": "KOKOMO",
    "road": "AVENIDA",
    "address 1": "PERNET,",
    "address 2": "26",
    "location": "NUEVA ATALAYA (ESTEPONA)",
    "province": "MALAGA",
    "address": "AVENIDA PERNET, 26 NUEVA ATALAYA (ESTEPONA) MALAGA",
    "coordinates": "36.4727625, -5.0178085",
    "lat": 36.4727625,
    "lng": -5.0178085
  },
  {
    "name": "PLAYERS SPORTS BAR",
    "road": "AVENIDA",
    "address 1": "IBENSA (PLAZA IBENSA)",
    "address 2": "S/N",
    "location": "TORREMOLINOS",
    "province": "MALAGA",
    "address": "AVENIDA IBENSA (PLAZA IBENSA) S/N TORREMOLINOS MALAGA",
    "coordinates": "36.597561, -4.5256233",
    "lat": 36.597561,
    "lng": -4.5256233
  },
  {
    "name": "BAZZA`S BAR",
    "road": "AVENIDA",
    "address 1": "DE LA TELEFONICA",
    "address 2": "S/N",
    "location": "BENALMADENA",
    "province": "MALAGA",
    "address": "AVENIDA DE LA TELEFONICA S/N BENALMADENA MALAGA",
    "coordinates": "36.5953209, -4.5225661",
    "lat": 36.5953209,
    "lng": -4.5225661
  },
  {
    "name": "BAR LA ROCA",
    "road": "AVENIDA",
    "address 1": "DEL TIVOLI (CONJUNTO MONTICULO)",
    "address 2": "8",
    "location": "BENALMADENA",
    "province": "MALAGA",
    "address": "AVENIDA DEL TIVOLI (CONJUNTO MONTICULO) 8 BENALMADENA MALAGA",
    "coordinates": "36.6006002, -4.5442814",
    "lat": 36.6006002,
    "lng": -4.5442814
  },
  {
    "name": "RED ROCKS SPORTS BAR",
    "road": "CALLE",
    "address 1": "LA FRAGATA",
    "address 2": "9",
    "location": "BENALMADENA",
    "province": "MALAGA",
    "address": "CALLE LA FRAGATA 9 BENALMADENA MALAGA",
    "coordinates": "36.5978095, -4.5110228",
    "lat": 36.5978095,
    "lng": -4.5110228
  },
  {
    "name": "iGOLF",
    "road": "CALLE",
    "address 1": "SEDELLA, LOCAL 15",
    "address 2": "7",
    "location": "LA CALA DE MIJAS",
    "province": "MALAGA",
    "address": "CALLE SEDELLA, LOCAL 15 7 LA CALA DE MIJAS MALAGA",
    "coordinates": "36.5013471, -4.6850787",
    "lat": 36.5013471,
    "lng": -4.6850787
  },
  {
    "name": "BAR APERITIVOS",
    "road": "CALLE",
    "address 1": "FRANCISCO CANO,",
    "address 2": "11",
    "location": "FUENGIROLA",
    "province": "MALAGA",
    "address": "CALLE FRANCISCO CANO, 11 FUENGIROLA MALAGA",
    "coordinates": "36.5506797, -4.6157322",
    "lat": 36.5506797,
    "lng": -4.6157322
  },
  {
    "name": "SPOTLIGHT",
    "road": "CALLE",
    "address 1": "JACINTO BENAVENTE",
    "address 2": "3",
    "location": "FUENGIROLA",
    "province": "MALAGA",
    "address": "CALLE JACINTO BENAVENTE 3 FUENGIROLA MALAGA",
    "coordinates": "36.5413833, -4.6216008",
    "lat": 36.5413833,
    "lng": -4.6216008
  },
  {
    "name": "BAR OLE",
    "road": "PLAZA",
    "address 1": "OLE, LOCAL",
    "address 2": "8",
    "location": "BENALMADENA",
    "province": "MALAGA",
    "address": "PLAZA OLE, LOCAL 8 BENALMADENA MALAGA",
    "coordinates": "36.597031, -4.5180575",
    "lat": 36.597031,
    "lng": -4.5180575
  },
  {
    "name": "BAR RED DRAGON",
    "road": "PASEO",
    "address 1": "MARITIMO REY DE ESPAÑA",
    "address 2": "125",
    "location": "FUENGIROLA",
    "province": "MALAGA",
    "address": "PASEO MARITIMO REY DE ESPAÑA 125 FUENGIROLA MALAGA",
    "coordinates": "36.5639598, -4.6011926",
    "lat": 36.5639598,
    "lng": -4.6011926
  },
  {
    "name": "THE IRISH PUB",
    "road": "AVENIDA",
    "address 1": "SAN CARLOS",
    "address 2": "7",
    "location": "BENALMADENA",
    "province": "MALAGA",
    "address": "AVENIDA SAN CARLOS 7 BENALMADENA MALAGA",
    "coordinates": "36.5971261, -4.5245573",
    "lat": 36.5971261,
    "lng": -4.5245573
  },
  {
    "name": "PUB YATES",
    "road": "",
    "address 1": "de sa Marina,",
    "address 2": "",
    "location": "Santanyí",
    "province": "Mallorca",
    "address": " de sa Marina,  Santanyí Mallorca",
    "coordinates": "39.3635877, 3.2249574",
    "lat": 39.3635877,
    "lng": 3.2249574
  },
  {
    "name": "MR. MIYAGIS",
    "road": "",
    "address 1": "Punta Ballena,",
    "address 2": "",
    "location": "Torrenova",
    "province": "Mallorca",
    "address": " Punta Ballena,  Torrenova Mallorca",
    "coordinates": "39.5098099, 2.5372887",
    "lat": 39.5098099,
    "lng": 2.5372887
  },
  {
    "name": "ROBBIE' S SPORT BAR",
    "road": "",
    "address 1": "Carrer de la Torreta, 5, 07400 Alcúdia, Illes Balears",
    "address 2": "",
    "location": "Picafort",
    "province": "Mallorca",
    "address": " Carrer de la Torreta, 5, 07400 Alcúdia, Illes Balears  Picafort Mallorca",
    "coordinates": "39.8423548, 3.133717",
    "lat": 39.8423548,
    "lng": 3.133717
  },
  {
    "name": "BAR TIGER",
    "road": "",
    "address 1": "PUNTA BALLENA,",
    "address 2": "",
    "location": "MAGALUF",
    "province": "Mallorca",
    "address": " PUNTA BALLENA,  MAGALUF Mallorca",
    "coordinates": "39.5096757, 2.5370441",
    "lat": 39.5096757,
    "lng": 2.5370441
  },
  {
    "name": "MUSIC BAR CALA BONA",
    "road": "",
    "address 1": "Passeig Maritim de Cala Bona, 1A, 07559 Son Servera, Illes Balears",
    "address 2": "",
    "location": "",
    "province": "Mallorca",
    "address": " Passeig Maritim de Cala Bona, 1A, 07559 Son Servera, Illes Balears   Mallorca",
    "coordinates": "39.6103802, 3.3898513",
    "lat": 39.6103802,
    "lng": 3.3898513
  },
  {
    "name": "PLAZA CAFETERIA",
    "road": "",
    "address 1": "Carrer de Santanyí, 16, 07660 Santanyí, Illes Balears",
    "address 2": "",
    "location": "Santanyí",
    "province": "Mallorca",
    "address": " Carrer de Santanyí, 16, 07660 Santanyí, Illes Balears  Santanyí Mallorca",
    "coordinates": "39.3736981, 3.2287064",
    "lat": 39.3736981,
    "lng": 3.2287064
  },
  {
    "name": "RUBY TUESDAYS",
    "road": "CARRER",
    "address 1": "Samoa",
    "address 2": "5",
    "location": "SALOU",
    "province": "TARRAGONA",
    "address": "CARRER Samoa 5 SALOU TARRAGONA",
    "coordinates": "41.0777581, 1.1315203",
    "lat": 41.0777581,
    "lng": 1.1315203
  },
  {
    "name": "ROAD HOUSE",
    "road": "PLAZA",
    "address 1": "Europa",
    "address 2": "11, local 4",
    "location": "SALOU",
    "province": "TARRAGONA",
    "address": "PLAZA Europa 11, local 4 SALOU TARRAGONA",
    "coordinates": "41.07708, 1.1450105",
    "lat": 41.07708,
    "lng": 1.1450105
  },
  {
    "name": "PUB VICTORIA",
    "road": "CARRER",
    "address 1": "Penedés",
    "address 2": "24",
    "location": "SALOU",
    "province": "TARRAGONA",
    "address": "CARRER Penedés 24 SALOU TARRAGONA",
    "coordinates": "41.0692434, 1.1511863",
    "lat": 41.0692434,
    "lng": 1.1511863
  },
  {
    "name": "WISSLER RESTAURANT 2020",
    "road": "CARRETERA",
    "address 1": "Ctra. Salou-La Pineda",
    "address 2": "S/N",
    "location": "SALOU",
    "province": "TARRAGONA",
    "address": "CARRETERA Ctra. Salou-La Pineda S/N SALOU TARRAGONA",
    "coordinates": "41.0888624, 1.1512253",
    "lat": 41.0888624,
    "lng": 1.1512253
  },
  {
    "name": "GRACE O'MALLEYS",
    "road": "CARRER",
    "address 1": "Cala Font",
    "address 2": "S/N",
    "location": "SALOU",
    "province": "TARRAGONA",
    "address": "CARRER Cala Font S/N SALOU TARRAGONA",
    "coordinates": "41.0583102, 1.1629651",
    "lat": 41.0583102,
    "lng": 1.1629651
  },
  {
    "name": "FLAHERTY'S",
    "road": "PLAZA",
    "address 1": "Joaquim Xirau",
    "address 2": "s/n",
    "location": "BARCELONA",
    "province": "BARCELONA",
    "address": "PLAZA Joaquim Xirau s/n BARCELONA BARCELONA",
    "coordinates": "41.3784414, 2.1763169",
    "lat": 41.3784414,
    "lng": 2.1763169
  },
  {
    "name": "RESTAURANTE WELCOME",
    "road": "PUERTO",
    "address 1": "Tomás Maestre",
    "address 2": "S/N",
    "location": "SAN JAVIER",
    "province": "MURCIA",
    "address": "PUERTO Tomás Maestre S/N SAN JAVIER MURCIA",
    "coordinates": "37.7409897, -0.7398482",
    "lat": 37.7409897,
    "lng": -0.7398482
  },
  {
    "name": "FLOYD´S LOUNGE",
    "road": "CALLE",
    "address 1": "Reina Sofía",
    "address 2": "6",
    "location": "FORMENTERA",
    "province": "ALICANTE",
    "address": "CALLE Reina Sofía 6 FORMENTERA ALICANTE",
    "coordinates": "38.3460627, -0.4907945",
    "lat": 38.3460627,
    "lng": -0.4907945
  },
  {
    "name": "HARD ROCK BRITISH BAR",
    "road": "CALLE",
    "address 1": "Camino de Cieza",
    "address 2": "S/N",
    "location": "FORTUNA",
    "province": "MURCIA",
    "address": "CALLE Camino de Cieza S/N FORTUNA MURCIA",
    "coordinates": "38.2046715, -1.127685",
    "lat": 38.2046715,
    "lng": -1.127685
  },
  {
    "name": "SO BAR",
    "road": "CALLE",
    "address 1": "Aneto // BENIMAR II",
    "address 2": "1",
    "location": "BENIJOFAR",
    "province": "ALICANTE",
    "address": "CALLE Aneto // BENIMAR II 1 BENIJOFAR ALICANTE",
    "coordinates": "38.07743749999999, -0.7282432",
    "lat": 38.0774375,
    "lng": -0.7282432
  },
  {
    "name": "BAR LA UNICA STUDZ",
    "road": "CALLE",
    "address 1": "Quesada Ballester",
    "address 2": "6",
    "location": "CIUDAD QUESADA",
    "province": "ALICANTE",
    "address": "CALLE Quesada Ballester 6 CIUDAD QUESADA ALICANTE",
    "coordinates": "38.0845748, -0.7098318",
    "lat": 38.0845748,
    "lng": -0.7098318
  },
  {
    "name": "FINAL WHISTLE",
    "road": "CALLE",
    "address 1": "Francisco de Quevedo",
    "address 2": "1",
    "location": "SAN FULGENCIO",
    "province": "ALICANTE",
    "address": "CALLE Francisco de Quevedo 1 SAN FULGENCIO ALICANTE",
    "coordinates": "38.1304668, -0.6791271999999999",
    "lat": 38.1304668,
    "lng": -0.6791272
  },
  {
    "name": "NINA´S BISTRO",
    "road": "CALLE",
    "address 1": "Mil Palmeras francia",
    "address 2": "",
    "location": "ORIHUELA",
    "province": "ALICANTE",
    "address": "CALLE Mil Palmeras francia  ORIHUELA ALICANTE",
    "coordinates": "37.886592, -0.7586284",
    "lat": 37.886592,
    "lng": -0.7586284
  },
  {
    "name": "PLAZA 39 RESTAURANTE",
    "road": "PLAZA",
    "address 1": "Castilla",
    "address 2": "39",
    "location": "SAN FULGENCIO",
    "province": "ALICANTE",
    "address": "PLAZA Castilla 39 SAN FULGENCIO ALICANTE",
    "coordinates": "38.1119997, -0.7192428",
    "lat": 38.1119997,
    "lng": -0.7192428
  },
  {
    "name": "THE GAP",
    "road": "CALLE",
    "address 1": "Maestro Torralba",
    "address 2": "2",
    "location": "ORIHUELA",
    "province": "ALICANTE",
    "address": "CALLE Maestro Torralba 2 ORIHUELA ALICANTE",
    "coordinates": "37.925142, -0.7294843",
    "lat": 37.925142,
    "lng": -0.7294843
  },
  {
    "name": "NEW YORK´S",
    "road": "",
    "address 1": "",
    "address 2": "",
    "location": "ORIHUELA",
    "province": "ALICANTE",
    "address": "   ORIHUELA ALICANTE",
    "coordinates": "38.08555279999999, -0.9480050999999999",
    "lat": 38.0855528,
    "lng": -0.9480051
  },
  {
    "name": "AURORA BAR",
    "road": "CALLE",
    "address 1": "Antonio Quesada",
    "address 2": "2",
    "location": "CIUDAD QUESADA",
    "province": "ALICANTE",
    "address": "CALLE Antonio Quesada 2 CIUDAD QUESADA ALICANTE",
    "coordinates": "38.0578261, -0.7154511",
    "lat": 38.0578261,
    "lng": -0.7154511
  },
  {
    "name": "ALE HOUSE",
    "road": "PLAZA",
    "address 1": "Villamartín L",
    "address 2": "7",
    "location": "ORIHUELA",
    "province": "ALICANTE",
    "address": "PLAZA Villamartín L 7 ORIHUELA ALICANTE",
    "coordinates": "37.94261210000001, -0.7587292999999999",
    "lat": 37.9426121,
    "lng": -0.7587293
  },
  {
    "name": "DA SILVA´S",
    "road": "AVENIDA",
    "address 1": "Las Naciones",
    "address 2": "57",
    "location": "CIUDAD QUESADA",
    "province": "ALICANTE",
    "address": "AVENIDA Las Naciones 57 CIUDAD QUESADA ALICANTE",
    "coordinates": "38.0646136, -0.7138985",
    "lat": 38.0646136,
    "lng": -0.7138985
  },
  {
    "name": "JOLLY ROGER",
    "road": "CALLE",
    "address 1": "Carabasí And. Noruega L",
    "address 2": "214",
    "location": "ALICANTE",
    "province": "ALICANTE",
    "address": "CALLE Carabasí And. Noruega L 214 ALICANTE ALICANTE",
    "coordinates": "60.47202399999999, 8.468945999999999",
    "lat": 60.472024,
    "lng": 8.468946
  },
  {
    "name": "THE NOOK",
    "road": "CALLE",
    "address 1": "Filipinas T. Pichón V",
    "address 2": "",
    "location": "ORIHUELA",
    "province": "ALICANTE",
    "address": "CALLE Filipinas T. Pichón V  ORIHUELA ALICANTE",
    "coordinates": "38.1020591, -0.8008795",
    "lat": 38.1020591,
    "lng": -0.8008795
  },
  {
    "name": "THE OLDE 9",
    "road": "CALLE",
    "address 1": "Campo Golf La Marquesa",
    "address 2": "1",
    "location": "ROJALES",
    "province": "ALICANTE",
    "address": "CALLE Campo Golf La Marquesa 1 ROJALES ALICANTE",
    "coordinates": "38.0839305, -0.7079327",
    "lat": 38.0839305,
    "lng": -0.7079327
  },
  {
    "name": "THE GUINNESS",
    "road": "AVENIDA",
    "address 1": "Alcoy",
    "address 2": "",
    "location": "BENIDORM",
    "province": "ALICANTE",
    "address": "AVENIDA Alcoy  BENIDORM ALICANTE",
    "coordinates": "38.5359304, -0.1241394",
    "lat": 38.5359304,
    "lng": -0.1241394
  },
  {
    "name": "DAYTONA BEACH",
    "road": "AVENIDA",
    "address 1": "Alcoy",
    "address 2": "15",
    "location": "BENIDORM",
    "province": "ALICANTE",
    "address": "AVENIDA Alcoy 15 BENIDORM ALICANTE",
    "coordinates": "38.5360552, -0.1220521",
    "lat": 38.5360552,
    "lng": -0.1220521
  },
  {
    "name": "THE ROYAL ARROW",
    "road": "AVENIDA",
    "address 1": "Filipinas Esq. Lepanto",
    "address 2": "",
    "location": "BENIDORM",
    "province": "ALICANTE",
    "address": "AVENIDA Filipinas Esq. Lepanto  BENIDORM ALICANTE",
    "coordinates": "38.5382322, -0.1141071",
    "lat": 38.5382322,
    "lng": -0.1141071
  },
  {
    "name": "TITANIC, BAR - 2031",
    "road": "AVENIDA",
    "address 1": "Cuenca",
    "address 2": "23",
    "location": "BENIDORM",
    "province": "ALICANTE",
    "address": "AVENIDA Cuenca 23 BENIDORM ALICANTE",
    "coordinates": "38.5432324, -0.1165772",
    "lat": 38.5432324,
    "lng": -0.1165772
  },
  {
    "name": "ROCK AND ROLL HOUSE, PUB",
    "road": "AVENIDA",
    "address 1": "Dr. Severo Ochoa",
    "address 2": "6",
    "location": "BENIDORM",
    "province": "ALICANTE",
    "address": "AVENIDA Dr. Severo Ochoa 6 BENIDORM ALICANTE",
    "coordinates": "38.5410902, -0.1035553",
    "lat": 38.5410902,
    "lng": -0.1035553
  },
  {
    "name": "SHOOTERS PIANO BAR",
    "road": "CALLE",
    "address 1": "Ibiza Esq. Cuenca",
    "address 2": "",
    "location": "BENIDORM",
    "province": "ALICANTE",
    "address": "CALLE Ibiza Esq. Cuenca  BENIDORM ALICANTE",
    "coordinates": "38.5397203, -0.117214",
    "lat": 38.5397203,
    "lng": -0.117214
  },
  {
    "name": "CAMDEM TOWN",
    "road": "CALLE",
    "address 1": "Lepanto",
    "address 2": "17",
    "location": "BENIDORM",
    "province": "ALICANTE",
    "address": "CALLE Lepanto 17 BENIDORM ALICANTE",
    "coordinates": "38.5385054, -0.1149559",
    "lat": 38.5385054,
    "lng": -0.1149559
  },
  {
    "name": "Yorkshire Pride 1",
    "road": "CALLE",
    "address 1": "Gerona",
    "address 2": "19",
    "location": "BENIDORM",
    "province": "ALICANTE",
    "address": "CALLE Gerona 19 BENIDORM ALICANTE",
    "coordinates": "38.5373543, -0.1172213",
    "lat": 38.5373543,
    "lng": -0.1172213
  },
  {
    "name": "Planet Benidorm",
    "road": "CALLE",
    "address 1": "Gerona",
    "address 2": "20",
    "location": "BENIDORM",
    "province": "ALICANTE",
    "address": "CALLE Gerona 20 BENIDORM ALICANTE",
    "coordinates": "38.537453, -0.117676",
    "lat": 38.537453,
    "lng": -0.117676
  },
  {
    "name": "Ibrox",
    "road": "CALLE",
    "address 1": "Lepanto",
    "address 2": "",
    "location": "BENIDORM",
    "province": "ALICANTE",
    "address": "CALLE Lepanto  BENIDORM ALICANTE",
    "coordinates": "38.5387892, -0.118723",
    "lat": 38.5387892,
    "lng": -0.118723
  },
  {
    "name": "CAFETERÍA NAVAB",
    "road": "AVENIDA",
    "address 1": "Martínez Alejos",
    "address 2": "16",
    "location": "BENIDORM",
    "province": "ALICANTE",
    "address": "AVENIDA Martínez Alejos 16 BENIDORM ALICANTE",
    "coordinates": "38.535862, -0.1284712",
    "lat": 38.535862,
    "lng": -0.1284712
  },
  {
    "name": "THE COWBOY PALACE - 3748",
    "road": "AVENIDA",
    "address 1": "Filipinas",
    "address 2": "6",
    "location": "BENIDORM",
    "province": "ALICANTE",
    "address": "AVENIDA Filipinas 6 BENIDORM ALICANTE",
    "coordinates": "38.53684670000001, -0.1142485",
    "lat": 38.5368467,
    "lng": -0.1142485
  },
  {
    "name": "BAHAMAS, DISCO - PUB - 1850",
    "road": "AVENIDA",
    "address 1": "Mallorca",
    "address 2": "7",
    "location": "BENIDORM",
    "province": "ALICANTE",
    "address": "AVENIDA Mallorca 7 BENIDORM ALICANTE",
    "coordinates": "38.5381128, -0.1159609",
    "lat": 38.5381128,
    "lng": -0.1159609
  },
  {
    "name": "WAIKIKI, DISCO - PUB - 3689",
    "road": "CALLE",
    "address 1": "Gerona",
    "address 2": "42",
    "location": "BENIDORM",
    "province": "ALICANTE",
    "address": "CALLE Gerona 42 BENIDORM ALICANTE",
    "coordinates": "38.536775, -0.1116403",
    "lat": 38.536775,
    "lng": -0.1116403
  },
  {
    "name": "PICADILLY RINCON, BAR - 2075",
    "road": "CALLE",
    "address 1": "Gerona",
    "address 2": "49",
    "location": "BENIDORM",
    "province": "ALICANTE",
    "address": "CALLE Gerona 49 BENIDORM ALICANTE",
    "coordinates": "38.5363602, -0.1080334",
    "lat": 38.5363602,
    "lng": -0.1080334
  },
  {
    "name": "SILVER DOLLAR, PUB - 2663",
    "road": "CALLE",
    "address 1": "Gerona",
    "address 2": "49",
    "location": "BENIDORM",
    "province": "ALICANTE",
    "address": "CALLE Gerona 49 BENIDORM ALICANTE",
    "coordinates": "38.5363602, -0.1080334",
    "lat": 38.5363602,
    "lng": -0.1080334
  },
  {
    "name": "SILVER CITY, PUB - 3502",
    "road": "AVENIDA",
    "address 1": "Mediterráneo",
    "address 2": "29",
    "location": "BENIDORM",
    "province": "ALICANTE",
    "address": "AVENIDA Mediterráneo 29 BENIDORM ALICANTE",
    "coordinates": "38.5365755, -0.1159809",
    "lat": 38.5365755,
    "lng": -0.1159809
  },
  {
    "name": "CROWN, PUB THE - 3265",
    "road": "CALLE",
    "address 1": "Almería",
    "address 2": "6",
    "location": "BENIDORM",
    "province": "ALICANTE",
    "address": "CALLE Almería 6 BENIDORM ALICANTE",
    "coordinates": "38.5371157, -0.1126808",
    "lat": 38.5371157,
    "lng": -0.1126808
  },
  {
    "name": "WESTERN",
    "road": "CALLE",
    "address 1": "Gerona",
    "address 2": "",
    "location": "BENIDORM",
    "province": "ALICANTE",
    "address": "CALLE Gerona  BENIDORM ALICANTE",
    "coordinates": "38.5373808, -0.1160042",
    "lat": 38.5373808,
    "lng": -0.1160042
  },
  {
    "name": "OASIS BEACH CLUB",
    "road": "AVENIDA",
    "address 1": "Madrid",
    "address 2": "30",
    "location": "BENIDORM",
    "province": "ALICANTE",
    "address": "AVENIDA Madrid 30 BENIDORM ALICANTE",
    "coordinates": "38.5342642, -0.108946",
    "lat": 38.5342642,
    "lng": -0.108946
  },
  {
    "name": "MEETING POINT BAR",
    "road": "AVENIDA",
    "address 1": "Av. de Filipinas",
    "address 2": "9",
    "location": "BENIDORM",
    "province": "ALICANTE",
    "address": "AVENIDA Av. de Filipinas 9 BENIDORM ALICANTE",
    "coordinates": "38.5376849, -0.1148098",
    "lat": 38.5376849,
    "lng": -0.1148098
  },
  {
    "name": "OUT BACH",
    "road": "AVENIDA",
    "address 1": "Filipinas",
    "address 2": "8",
    "location": "BENIDORM",
    "province": "ALICANTE",
    "address": "AVENIDA Filipinas 8 BENIDORM ALICANTE",
    "coordinates": "38.5373986, -0.1138964",
    "lat": 38.5373986,
    "lng": -0.1138964
  },
  {
    "name": "CHAMPIONS",
    "road": "AVENIDA",
    "address 1": "Mallorca",
    "address 2": "7",
    "location": "BENIDORM",
    "province": "ALICANTE",
    "address": "AVENIDA Mallorca 7 BENIDORM ALICANTE",
    "coordinates": "38.5381128, -0.1159609",
    "lat": 38.5381128,
    "lng": -0.1159609
  },
  {
    "name": "Mambo",
    "road": "Calle",
    "address 1": "Núñez de Arce",
    "address 2": "14",
    "location": "Madrid",
    "province": "Madrid",
    "address": "Calle Núñez de Arce 14 Madrid Madrid",
    "coordinates": "40.4152568, -3.7015326",
    "lat": 40.4152568,
    "lng": -3.7015326
  },
  {
    "name": "Chick FC",
    "road": "Calle",
    "address 1": "Espíritu Santo",
    "address 2": "12",
    "location": "Madrid",
    "province": "Madrid",
    "address": "Calle Espíritu Santo 12 Madrid Madrid",
    "coordinates": "40.4252359, -3.7028667",
    "lat": 40.4252359,
    "lng": -3.7028667
  },
  {
    "name": "Caza Endulzada",
    "road": "Calle",
    "address 1": "San Bartolomé",
    "address 2": "21",
    "location": "Madrid",
    "province": "Madrid",
    "address": "Calle San Bartolomé 21 Madrid Madrid",
    "coordinates": "40.422141, -3.6985299",
    "lat": 40.422141,
    "lng": -3.6985299
  },
  {
    "name": "Hotel California",
    "road": "Calle",
    "address 1": "San Vicente Ferrer",
    "address 2": "28",
    "location": "Madrid",
    "province": "Madrid",
    "address": "Calle San Vicente Ferrer 28 Madrid Madrid",
    "coordinates": "40.4258053, -3.7035968",
    "lat": 40.4258053,
    "lng": -3.7035968
  },
  {
    "name": "El Colmao",
    "road": "Calle",
    "address 1": "San Vicente Ferrer",
    "address 2": "29",
    "location": "Madrid",
    "province": "Madrid",
    "address": "Calle San Vicente Ferrer 29 Madrid Madrid",
    "coordinates": "40.4257073, -3.7037383",
    "lat": 40.4257073,
    "lng": -3.7037383
  },
  {
    "name": "La Copla",
    "road": "Calle",
    "address 1": "Jesús del Valle",
    "address 2": "1",
    "location": "Madrid",
    "province": "Madrid",
    "address": "Calle Jesús del Valle 1 Madrid Madrid",
    "coordinates": "40.4240109, -3.705021",
    "lat": 40.4240109,
    "lng": -3.705021
  },
  {
    "name": "Malpica Bar",
    "road": "Calle",
    "address 1": "Corredera Baja de San Pablo",
    "address 2": "4",
    "location": "Madrid",
    "province": "Madrid",
    "address": "Calle Corredera Baja de San Pablo 4 Madrid Madrid",
    "coordinates": "40.4216281, -3.704713",
    "lat": 40.4216281,
    "lng": -3.704713
  },
  {
    "name": "Toboggan",
    "road": "Plaza",
    "address 1": "Rutilo Gacis",
    "address 2": "2",
    "location": "Madrid",
    "province": "Madrid",
    "address": "Plaza Rutilo Gacis 2 Madrid Madrid",
    "coordinates": "40.39456, -3.69688",
    "lat": 40.39456,
    "lng": -3.69688
  },
  {
    "name": "Circo de las Tapas",
    "road": "Calle",
    "address 1": "Corredera Baja de San Pablo",
    "address 2": "21",
    "location": "Madrid",
    "province": "Madrid",
    "address": "Calle Corredera Baja de San Pablo 21 Madrid Madrid",
    "coordinates": "40.4224358, -3.7042381",
    "lat": 40.4224358,
    "lng": -3.7042381
  },
  {
    "name": "La Prensa",
    "road": "Calle",
    "address 1": "Colón",
    "address 2": "3",
    "location": "Madrid",
    "province": "Madrid",
    "address": "Calle Colón 3 Madrid Madrid",
    "coordinates": "40.4237002, -3.7010569",
    "lat": 40.4237002,
    "lng": -3.7010569
  },
  {
    "name": "Bodegas Rivas",
    "road": "Calle",
    "address 1": "La Palma",
    "address 2": "61",
    "location": "Madrid",
    "province": "Madrid",
    "address": "Calle La Palma 61 Madrid Madrid",
    "coordinates": "40.4265905, -3.7076375",
    "lat": 40.4265905,
    "lng": -3.7076375
  },
  {
    "name": "Greek And Shop",
    "road": "Calle",
    "address 1": "Corredera Alta de San Pablo",
    "address 2": "9",
    "location": "Madrid",
    "province": "Madrid",
    "address": "Calle Corredera Alta de San Pablo 9 Madrid Madrid",
    "coordinates": "40.4248706, -3.7020726",
    "lat": 40.4248706,
    "lng": -3.7020726
  },
  {
    "name": "La Prensa 2",
    "road": "Calle",
    "address 1": "Sagasta",
    "address 2": "12",
    "location": "Madrid",
    "province": "Madrid",
    "address": "Calle Sagasta 12 Madrid Madrid",
    "coordinates": "40.4283972, -3.6999882",
    "lat": 40.4283972,
    "lng": -3.6999882
  },
  {
    "name": "BAR LA HERRADURA P.PARAISO",
    "road": "Avenida",
    "address 1": "Adeje",
    "address 2": "300",
    "location": "Costa Adeje",
    "province": "TENERIFE",
    "address": "Avenida Adeje 300 Costa Adeje TENERIFE",
    "coordinates": "28.1217389, -16.7703667",
    "lat": 28.1217389,
    "lng": -16.7703667
  },
  {
    "name": "BARNEYS BAR",
    "road": "Avenida",
    "address 1": "Av. de Papagayo S/N",
    "address 2": "",
    "location": "Playa Blanca",
    "province": "LANZAROTE",
    "address": "Avenida Av. de Papagayo S/N  Playa Blanca LANZAROTE",
    "coordinates": "28.8625348, -13.8130745",
    "lat": 28.8625348,
    "lng": -13.8130745
  },
  {
    "name": "BEACH PUB",
    "road": "Calle",
    "address 1": "Ola",
    "address 2": "17",
    "location": "Costa Teguise",
    "province": "LANZAROTE",
    "address": "Calle Ola 17 Costa Teguise LANZAROTE",
    "coordinates": "28.9962416, -13.4911745",
    "lat": 28.9962416,
    "lng": -13.4911745
  },
  {
    "name": "CASEY´S LOUNGE",
    "road": "Calle",
    "address 1": "San Francisco, CC Pasarela local a14-a16",
    "address 2": "",
    "location": "Los Cristianos",
    "province": "Tenerife",
    "address": "Calle San Francisco, CC Pasarela local a14-a16  Los Cristianos Tenerife",
    "coordinates": "28.0539771, -16.7068384",
    "lat": 28.0539771,
    "lng": -16.7068384
  },
  {
    "name": "CHILLIES BAR",
    "road": "Avenida",
    "address 1": "Rafael Puig Lluvina",
    "address 2": "",
    "location": "Adeje",
    "province": "TENERIFE",
    "address": "Avenida Rafael Puig Lluvina  Adeje TENERIFE",
    "coordinates": "28.0689656, -16.732309",
    "lat": 28.0689656,
    "lng": -16.732309
  },
  {
    "name": "CLOCK HOUSE",
    "road": "Avenida",
    "address 1": "Urbanizacion San Eugenio, 17, Local 5, 6",
    "address 2": "17",
    "location": "Costa Adeje",
    "province": "TENERIFE",
    "address": "Avenida Urbanizacion San Eugenio, 17, Local 5, 6 17 Costa Adeje TENERIFE",
    "coordinates": "28.0748338, -16.7340192",
    "lat": 28.0748338,
    "lng": -16.7340192
  },
  {
    "name": "DO-DAHS",
    "road": "Avenida",
    "address 1": "la Habana Local /D",
    "address 2": "11",
    "location": "Arona",
    "province": "TENERIFE",
    "address": "Avenida la Habana Local /D 11 Arona TENERIFE",
    "coordinates": "28.0534022, -16.7234936",
    "lat": 28.0534022,
    "lng": -16.7234936
  },
  {
    "name": "DURTY NELLY´S",
    "road": "Calle",
    "address 1": "Juan Díaz Rodríguez",
    "address 2": "31",
    "location": "Mogán",
    "province": "GRAN CANARIA",
    "address": "Calle Juan Díaz Rodríguez 31 Mogán GRAN CANARIA",
    "coordinates": "27.7843981, -15.7076047",
    "lat": 27.7843981,
    "lng": -15.7076047
  },
  {
    "name": "ENGLISH ROSE",
    "road": "Avenida",
    "address 1": "Santiago Puig",
    "address 2": "1",
    "location": "Adeje",
    "province": "TENERIFE",
    "address": "Avenida Santiago Puig 1 Adeje TENERIFE",
    "coordinates": "28.0623578, -16.7300637",
    "lat": 28.0623578,
    "lng": -16.7300637
  },
  {
    "name": "FIRST AND LAST",
    "road": "Calle",
    "address 1": "Roma Costa",
    "address 2": "4",
    "location": "Costa Adeje",
    "province": "TENERIFE",
    "address": "Calle Roma Costa 4 Costa Adeje TENERIFE",
    "coordinates": "28.0855631, -16.7344644",
    "lat": 28.0855631,
    "lng": -16.7344644
  },
  {
    "name": "FOX GASTRO PUB",
    "road": "Calle",
    "address 1": "Boston",
    "address 2": "16",
    "location": "Los Cristianos",
    "province": "TENERIFE",
    "address": "Calle Boston 16 Los Cristianos TENERIFE",
    "coordinates": "28.0541245, -16.7085445",
    "lat": 28.0541245,
    "lng": -16.7085445
  },
  {
    "name": "FRESH ON THE GOLF",
    "road": "Calle",
    "address 1": "CC San Blas, Calle Trasera S. Blas, Local 79-84",
    "address 2": "",
    "location": "Oasis del Sur",
    "province": "Tenerife",
    "address": "Calle CC San Blas, Calle Trasera S. Blas, Local 79-84  Oasis del Sur Tenerife",
    "coordinates": "28.0298907, -16.6033431",
    "lat": 28.0298907,
    "lng": -16.6033431
  },
  {
    "name": "GAFFERS",
    "road": "Avenida",
    "address 1": "Arquitecto Gómez Cuesta",
    "address 2": "",
    "location": "Arona",
    "province": "TENERIFE",
    "address": "Avenida Arquitecto Gómez Cuesta  Arona TENERIFE",
    "coordinates": "28.0612245, -16.7268484",
    "lat": 28.0612245,
    "lng": -16.7268484
  },
  {
    "name": "GEE GEE´S BAR",
    "road": "Calle",
    "address 1": "Chabusquillo",
    "address 2": "2",
    "location": "Tías",
    "province": "LANZAROTE",
    "address": "Calle Chabusquillo 2 Tías LANZAROTE",
    "coordinates": "28.9321331, -13.6212364",
    "lat": 28.9321331,
    "lng": -13.6212364
  },
  {
    "name": "HARBOUR CLUB",
    "road": "Avenida",
    "address 1": "Marítima",
    "address 2": "12",
    "location": "Puerto Cakero",
    "province": "LANZAROTE",
    "address": "Avenida Marítima 12 Puerto Cakero LANZAROTE",
    "coordinates": "28.907159, -13.7329206",
    "lat": 28.907159,
    "lng": -13.7329206
  },
  {
    "name": "HIGHLAND PADDY (LAS AMERICAS)",
    "road": "Calle",
    "address 1": "Luis Diaz de Losada",
    "address 2": "6",
    "location": "Adeje",
    "province": "TENERIFE",
    "address": "Calle Luis Diaz de Losada 6 Adeje TENERIFE",
    "coordinates": "28.0527815, -16.7292558",
    "lat": 28.0527815,
    "lng": -16.7292558
  },
  {
    "name": "IRISH FIDDLER",
    "road": "Avenida",
    "address 1": "de Colón",
    "address 2": "3",
    "location": "Adeje",
    "province": "TENERIFE",
    "address": "Avenida de Colón 3 Adeje TENERIFE",
    "coordinates": "28.0778848, -16.7331532",
    "lat": 28.0778848,
    "lng": -16.7331532
  },
  {
    "name": "IRISH OAK TORVISCAS",
    "road": "Centro Comercial",
    "address 1": "C.C Starco",
    "address 2": "",
    "location": "Playa de la Américas",
    "province": "Tenerife",
    "address": "Centro Comercial C.C Starco  Playa de la Américas Tenerife",
    "coordinates": "28.0651748, -16.7306097",
    "lat": 28.0651748,
    "lng": -16.7306097
  },
  {
    "name": "KEVIN´S CHILL OUT BAR",
    "road": "Paseo",
    "address 1": "Paseo Guadalajara",
    "address 2": "50",
    "location": "Adeje",
    "province": "TENERIFE",
    "address": "Paseo Paseo Guadalajara 50 Adeje TENERIFE",
    "coordinates": "28.0606671, -16.7336506",
    "lat": 28.0606671,
    "lng": -16.7336506
  },
  {
    "name": "KINSELLAS",
    "road": "Paseo",
    "address 1": "Paseo Marítimo (Cto. Com. José Bas) Los Cristianos",
    "address 2": "3",
    "location": "Arona",
    "province": "TENERIFE",
    "address": "Paseo Paseo Marítimo (Cto. Com. José Bas) Los Cristianos 3 Arona TENERIFE",
    "coordinates": "28.0832474, -16.7349114",
    "lat": 28.0832474,
    "lng": -16.7349114
  },
  {
    "name": "MARSHALLS",
    "road": "Calle",
    "address 1": "Noelia Afonso Cabrera",
    "address 2": "6",
    "location": "Playa de la Américas",
    "province": "TENERIFE",
    "address": "Calle Noelia Afonso Cabrera 6 Playa de la Américas TENERIFE",
    "coordinates": "28.0607168, -16.7277262",
    "lat": 28.0607168,
    "lng": -16.7277262
  },
  {
    "name": "MULLIGANS-P.INGLES",
    "road": "Avenida",
    "address 1": "de Tenerife",
    "address 2": "6",
    "location": "San Bartolomé de Tirajana",
    "province": "GRAN CANARIA",
    "address": "Avenida de Tenerife 6 San Bartolomé de Tirajana GRAN CANARIA",
    "coordinates": "27.7634907, -15.5658025",
    "lat": 27.7634907,
    "lng": -15.5658025
  },
  {
    "name": "PADDY O´KELLYS",
    "road": "Avenida",
    "address 1": "Santiago Puig",
    "address 2": "5",
    "location": "Arona",
    "province": "TENERIFE",
    "address": "Avenida Santiago Puig 5 Arona TENERIFE",
    "coordinates": "28.0619229, -16.728169",
    "lat": 28.0619229,
    "lng": -16.728169
  },
  {
    "name": "PLAZA BAR",
    "road": "Avenida",
    "address 1": "del Jablillo",
    "address 2": "11",
    "location": "Costa Teguise",
    "province": "LANZAROTE",
    "address": "Avenida del Jablillo 11 Costa Teguise LANZAROTE",
    "coordinates": "28.9950754, -13.4905591",
    "lat": 28.9950754,
    "lng": -13.4905591
  },
  {
    "name": "PORTOBELLO IRISH PUB",
    "road": "Avenida",
    "address 1": "Papagayo",
    "address 2": "75",
    "location": "Playa Blanca",
    "province": "Lanzarote",
    "address": "Avenida Papagayo 75 Playa Blanca Lanzarote",
    "coordinates": "28.8635082, -13.826973",
    "lat": 28.8635082,
    "lng": -13.826973
  },
  {
    "name": "SINATRA´S (ATAMANES)",
    "road": "",
    "address 1": "Urbanizacion Torviscas, Local 8F",
    "address 2": "",
    "location": "Adeje",
    "province": "TENERIFE",
    "address": " Urbanizacion Torviscas, Local 8F  Adeje TENERIFE",
    "coordinates": "28.0913708, -16.7164483",
    "lat": 28.0913708,
    "lng": -16.7164483
  },
  {
    "name": "SUNSET BAR",
    "road": "Calle",
    "address 1": "La Hondura, 38683",
    "address 2": "11",
    "location": "Santiago del Teide",
    "province": "TENERIFE",
    "address": "Calle La Hondura, 38683 11 Santiago del Teide TENERIFE",
    "coordinates": "28.2393551, -16.8428727",
    "lat": 28.2393551,
    "lng": -16.8428727
  },
  {
    "name": "THE OLD LODGE",
    "road": "Centro Comercial",
    "address 1": "Centro Comercial Costa de Colón Costa",
    "address 2": "",
    "location": "Costa Adeje",
    "province": "TENERIFE",
    "address": "Centro Comercial Centro Comercial Costa de Colón Costa  Costa Adeje TENERIFE",
    "coordinates": "28.0822288, -16.7353452",
    "lat": 28.0822288,
    "lng": -16.7353452
  },
  {
    "name": "THE RETRO CAFÉ",
    "road": "Avenida",
    "address 1": "Avenida Nuestra Senora del Carmen, Centro Comercial Lobos Bahía",
    "address 2": "2",
    "location": "Corralejo",
    "province": "Fuerteventura",
    "address": "Avenida Avenida Nuestra Senora del Carmen, Centro Comercial Lobos Bahía 2 Corralejo Fuerteventura",
    "coordinates": "28.7302368, -13.8710959",
    "lat": 28.7302368,
    "lng": -13.8710959
  },
  {
    "name": "THE SHAMROCK",
    "road": "Calle",
    "address 1": "Jablillo",
    "address 2": "13a",
    "location": "",
    "province": "LANZAROTE",
    "address": "Calle Jablillo 13a  LANZAROTE",
    "coordinates": "29.2223478, -13.4529606",
    "lat": 29.2223478,
    "lng": -13.4529606
  },
  {
    "name": "THE VAULT",
    "road": "Avenida",
    "address 1": "El Mirador Local Ámsterdam",
    "address 2": "17",
    "location": "Arona",
    "province": "TENERIFE",
    "address": "Avenida El Mirador Local Ámsterdam 17 Arona TENERIFE",
    "coordinates": "28.05112, -16.70696",
    "lat": 28.05112,
    "lng": -16.70696
  },
  {
    "name": "THE WINCHESTER RESTAURANTE",
    "road": "Calle",
    "address 1": "Londres s/n Costa",
    "address 2": "s/n",
    "location": "Costa Adeje",
    "province": "TENERIFE",
    "address": "Calle Londres s/n Costa s/n Costa Adeje TENERIFE",
    "coordinates": "28.0881027, -16.7356047",
    "lat": 28.0881027,
    "lng": -16.7356047
  },
  {
    "name": "XTREEEMZ BAR",
    "road": "Avenida",
    "address 1": "Tomás Roca Bosch, LOCAL 16",
    "address 2": "",
    "location": "Puerto Rico",
    "province": "Gran Canaria",
    "address": "Avenida Tomás Roca Bosch, LOCAL 16  Puerto Rico Gran Canaria",
    "coordinates": "27.7927829, -15.7071165",
    "lat": 27.7927829,
    "lng": -15.7071165
  },
  {
    "name": "YOLO (LAS AMERICAS)",
    "road": "Avenida",
    "address 1": "Ámsterdam",
    "address 2": "9",
    "location": "Arona",
    "province": "TENERIFE",
    "address": "Avenida Ámsterdam 9 Arona TENERIFE",
    "coordinates": "28.0530164, -16.7096485",
    "lat": 28.0530164,
    "lng": -16.7096485
  },
  {
    "name": "YOLO SPORT BAR",
    "road": "Calle",
    "address 1": "Noelia Afonso Cabrera",
    "address 2": "",
    "location": "Adeje",
    "province": "TENERIFE",
    "address": "Calle Noelia Afonso Cabrera  Adeje TENERIFE",
    "coordinates": "28.0594403, -16.7289893",
    "lat": 28.0594403,
    "lng": -16.7289893
  },
  {
    "name": "BAR NORTHERN LIGHTS",
    "road": "Avenida",
    "address 1": "Av. Francisco Navarro Navarro, Ancora Centre, local 20",
    "address 2": "2",
    "location": "Arguineguín",
    "province": "Gran Canaria",
    "address": "Avenida Av. Francisco Navarro Navarro, Ancora Centre, local 20 2 Arguineguín Gran Canaria",
    "coordinates": "27.7620525, -15.6820144",
    "lat": 27.7620525,
    "lng": -15.6820144
  },
  {
    "name": "INN 2 SPORT",
    "road": "Avenida",
    "address 1": "Rafael Puig Lluvina",
    "address 2": "11",
    "location": "Arona",
    "province": "TENERIFE",
    "address": "Avenida Rafael Puig Lluvina 11 Arona TENERIFE",
    "coordinates": "28.0641, -16.73065",
    "lat": 28.0641,
    "lng": -16.73065
  },
  {
    "name": "THE BAR",
    "road": "Avenida",
    "address 1": "Av. de Colón",
    "address 2": "",
    "location": "Puerto de Colon",
    "province": "TENERIFE",
    "address": "Avenida Av. de Colón  Puerto de Colon TENERIFE",
    "coordinates": "28.0789928, -16.7359737",
    "lat": 28.0789928,
    "lng": -16.7359737
  },
  {
    "name": "THE TEMPLE BAR",
    "road": "Calle",
    "address 1": "C. Timanfaya, 2d Centro Comercial Europa",
    "address 2": "",
    "location": "Puerto Rico",
    "province": "Gran Canaria",
    "address": "Calle C. Timanfaya, 2d Centro Comercial Europa  Puerto Rico Gran Canaria",
    "coordinates": "27.7904948, -15.7150023",
    "lat": 27.7904948,
    "lng": -15.7150023
  },
  {
    "name": "BAR JAMAICA",
    "road": "Calle",
    "address 1": "C. Isla de Lobos, 2 - Centro Comercial Europa",
    "address 2": "",
    "location": "Puerto Rico",
    "province": "Gran Canaria",
    "address": "Calle C. Isla de Lobos, 2 - Centro Comercial Europa  Puerto Rico Gran Canaria",
    "coordinates": "27.7904948, -15.7150023",
    "lat": 27.7904948,
    "lng": -15.7150023
  },
  {
    "name": "THE SPORT BAR CORRALEJO",
    "road": "Calle",
    "address 1": "C. el Hierro, Local1",
    "address 2": "2",
    "location": "Corralejo",
    "province": "FUERTEVENTURA",
    "address": "Calle C. el Hierro, Local1 2 Corralejo FUERTEVENTURA",
    "coordinates": "28.7273628, -13.8646149",
    "lat": 28.7273628,
    "lng": -13.8646149
  },
  {
    "name": "THE SMITHS ARMS",
    "road": "Calle",
    "address 1": "C. Gerardo Estévez Martín",
    "address 2": "2",
    "location": "Corralejo",
    "province": "FUERTEVENTURA",
    "address": "Calle C. Gerardo Estévez Martín 2 Corralejo FUERTEVENTURA",
    "coordinates": "28.7386585, -13.8687763",
    "lat": 28.7386585,
    "lng": -13.8687763
  },
  {
    "name": "TRAMPS",
    "road": "Centro Comercial",
    "address 1": "Centro Comercial Starco Arquitecto Gómez Cuesta s/n",
    "address 2": "s/n",
    "location": "Adeje",
    "province": "TENERIFE",
    "address": "Centro Comercial Centro Comercial Starco Arquitecto Gómez Cuesta s/n s/n Adeje TENERIFE",
    "coordinates": "28.0651748, -16.7306097",
    "lat": 28.0651748,
    "lng": -16.7306097
  },
  {
    "name": "THE TEMPLE BAR",
    "road": "Avenida",
    "address 1": "de Colón",
    "address 2": "3",
    "location": "Adeje",
    "province": "TENERIFE",
    "address": "Avenida de Colón 3 Adeje TENERIFE",
    "coordinates": "28.0778848, -16.7331532",
    "lat": 28.0778848,
    "lng": -16.7331532
  },
  {
    "name": "THE PUB (PTO. RICO)",
    "road": "Avenida",
    "address 1": "Tomás Roca Bosch",
    "address 2": "",
    "location": "Puerto Rico",
    "province": "GRAN CANARIA",
    "address": "Avenida Tomás Roca Bosch  Puerto Rico GRAN CANARIA",
    "coordinates": "27.7927829, -15.7071165",
    "lat": 27.7927829,
    "lng": -15.7071165
  },
  {
    "name": "Kitty´s Costa Teguise",
    "road": "Avenida",
    "address 1": "Av. de las Islas Canarias",
    "address 2": "21",
    "location": "Costa Teguise",
    "province": "LANZAROTE",
    "address": "Avenida Av. de las Islas Canarias 21 Costa Teguise LANZAROTE",
    "coordinates": "28.9992717, -13.4902209",
    "lat": 28.9992717,
    "lng": -13.4902209
  },
  {
    "name": "Sunset Snack Bar",
    "road": "Calle",
    "address 1": "C. Valencia, Urb. Pueblo Torviscas,",
    "address 2": "3",
    "location": "Adeje",
    "province": "TENERIFE",
    "address": "Calle C. Valencia, Urb. Pueblo Torviscas, 3 Adeje TENERIFE",
    "coordinates": "28.0819336, -16.7347867",
    "lat": 28.0819336,
    "lng": -16.7347867
  },
  {
    "name": "Green Corner (Los Gigantes)",
    "road": "Calle",
    "address 1": "C. Flor de Pascua",
    "address 2": "4",
    "location": "Santiago del Teide",
    "province": "TENERIFE",
    "address": "Calle C. Flor de Pascua 4 Santiago del Teide TENERIFE",
    "coordinates": "28.2444245, -16.8409405",
    "lat": 28.2444245,
    "lng": -16.8409405
  },
  {
    "name": "Bar Rest. Melo Diaz",
    "road": "Avenida",
    "address 1": "Av. Adeje 300 Bajos Aptos Paraiso del Sur",
    "address 2": "300",
    "location": "Adeje",
    "province": "TENERIFE",
    "address": "Avenida Av. Adeje 300 Bajos Aptos Paraiso del Sur 300 Adeje TENERIFE",
    "coordinates": "28.0937492, -16.7060298",
    "lat": 28.0937492,
    "lng": -16.7060298
  },
  {
    "name": "Hop Bar",
    "road": "Calle",
    "address 1": "Apodaca",
    "address 2": "11",
    "location": "Madrid",
    "province": "Madrid",
    "address": "Calle Apodaca 11 Madrid Madrid",
    "coordinates": "40.4275027, -3.6999563",
    "lat": 40.4275027,
    "lng": -3.6999563
  },
  {
    "name": "El Ternasco",
    "road": "Avenida",
    "address 1": "Príncipe de Asturias",
    "address 2": "94",
    "location": "Villaviciosa de Odón",
    "province": "Madrid",
    "address": "Avenida Príncipe de Asturias 94 Villaviciosa de Odón Madrid",
    "coordinates": "40.36005979999999, -3.9081467",
    "lat": 40.3600598,
    "lng": -3.9081467
  }
]
