[
  {
    "name": "Alma Inn",
    "road": "Alma Lane",
    "location": "SOUTHAMPTON",
    "postcode": "SO32 1HE",
    "address": "Alma Lane SOUTHAMPTON SO32 1HE",
    "coordinates": "50.967752, -1.2630707",
    "lat": 50.967752,
    "lng": -1.2630707
  },
  {
    "name": "Ash Bank Hotel",
    "road": "216 Ash Bank Road",
    "location": "STOKE-ON-TRENT",
    "postcode": "ST2 9EB",
    "address": "216 Ash Bank Road STOKE-ON-TRENT ST2 9EB",
    "coordinates": "53.0208317, -2.105501",
    "lat": 53.0208317,
    "lng": -2.105501
  },
  {
    "name": "Astley Arms Inn",
    "road": "Marine View",
    "location": "WHITLEY BAY",
    "postcode": "NE26 4JX",
    "address": "Marine View WHITLEY BAY NE26 4JX",
    "coordinates": "55.0861724, -1.4816778",
    "lat": 55.0861724,
    "lng": -1.4816778
  },
  {
    "name": "Barley Mow",
    "road": "Manor Road",
    "location": "HAYLING ISLAND",
    "postcode": "PO11 0EZ",
    "address": "Manor Road HAYLING ISLAND PO11 0EZ",
    "coordinates": "50.7910233, -0.9877744",
    "lat": 50.7910233,
    "lng": -0.9877744
  },
  {
    "name": "Barley Mow",
    "road": "Priory Square",
    "location": "STUDLEY",
    "postcode": "B80 7BA",
    "address": "Priory Square STUDLEY B80 7BA",
    "coordinates": "52.274855061664084, -1.8948554791053855",
    "lat": 52.274855061664084,
    "lng": -1.8948554791053855
  },
  {
    "name": "Barnbow",
    "road": "Austhorpe Road",
    "location": "LEEDS",
    "postcode": "LS15 8EH",
    "address": "Austhorpe Road LEEDS LS15 8EH",
    "coordinates": "53.8073012, -1.4446709",
    "lat": 53.8073012,
    "lng": -1.4446709
  },
  {
    "name": "Bartlewood Lodge",
    "road": "Dale Road",
    "location": "DERBY",
    "postcode": "DE72 3RY",
    "address": "Dale Road DERBY DE72 3RY",
    "coordinates": "52.9272857, -1.3839465",
    "lat": 52.9272857,
    "lng": -1.3839465
  },
  {
    "name": "Beach Arms",
    "road": "Clerken Green",
    "location": "BASINGSTOKE",
    "postcode": "RG23 7EP",
    "address": "Clerken Green BASINGSTOKE RG23 7EP",
    "coordinates": "51.2550791, -1.192767",
    "lat": 51.2550791,
    "lng": -1.192767
  },
  {
    "name": "Bells Of St Mary's",
    "road": "Mostyn Road",
    "location": "PRESTATYN",
    "postcode": "LL19 9TB",
    "address": "Mostyn Road PRESTATYN LL19 9TB",
    "coordinates": "53.3408957, -3.3589415",
    "lat": 53.3408957,
    "lng": -3.3589415
  },
  {
    "name": "Blue Peter",
    "road": "Shardlow Road",
    "location": "DERBY",
    "postcode": "DE24 0JH",
    "address": "Shardlow Road DERBY DE24 0JH",
    "coordinates": "52.8959715, -1.4276609",
    "lat": 52.8959715,
    "lng": -1.4276609
  },
  {
    "name": "Britannia Inn",
    "road": "Riverside Drive",
    "location": "LIVERPOOL",
    "postcode": "L3 4AZ",
    "address": "Riverside Drive LIVERPOOL L3 4AZ",
    "coordinates": "53.3741192, -2.9621312",
    "lat": 53.3741192,
    "lng": -2.9621312
  },
  {
    "name": "Broadwood Farm",
    "road": "Craiglinn Park Road",
    "location": "GLASGOW",
    "postcode": "G68 9JY",
    "address": "Craiglinn Park Road GLASGOW G68 9JY",
    "coordinates": "55.9437886, -4.0274065",
    "lat": 55.9437886,
    "lng": -4.0274065
  },
  {
    "name": "Brucefield Farm",
    "road": "Rutherford Square",
    "location": "LIVINGSTON",
    "postcode": "EH54 9BU",
    "address": "Rutherford Square LIVINGSTON EH54 9BU",
    "coordinates": "55.8659434, -3.5343183",
    "lat": 55.8659434,
    "lng": -3.5343183
  },
  {
    "name": "Buckie Farm",
    "road": "Parkway, Danestone",
    "location": "ABERDEEN",
    "postcode": "AB22 8AL",
    "address": "Parkway, Danestone ABERDEEN AB22 8AL",
    "coordinates": "57.1838267, -2.1260369",
    "lat": 57.1838267,
    "lng": -2.1260369
  },
  {
    "name": "Bulls Head",
    "road": "Loughborough Road",
    "location": "COALVILLE",
    "postcode": "LE67 8LR",
    "address": "Loughborough Road COALVILLE LE67 8LR",
    "coordinates": "52.7558752, -1.3656043",
    "lat": 52.7558752,
    "lng": -1.3656043
  },
  {
    "name": "Cock & Crown",
    "road": "570 Doncaster Road",
    "location": "WAKEFIELD",
    "postcode": "WF4 1PP",
    "address": "570 Doncaster Road WAKEFIELD WF4 1PP",
    "coordinates": "53.6634158, -1.4313382",
    "lat": 53.6634158,
    "lng": -1.4313382
  },
  {
    "name": "Copperfield",
    "road": "Gravesend Road",
    "location": "GRAVESEND",
    "postcode": "DA12 3JW",
    "address": "Gravesend Road GRAVESEND DA12 3JW",
    "coordinates": "51.4183533, 0.4396459",
    "lat": 51.4183533,
    "lng": 0.4396459
  },
  {
    "name": "Crosspool",
    "road": "468 Manchester Road",
    "location": "SHEFFIELD",
    "postcode": "S10 5DT",
    "address": "468 Manchester Road SHEFFIELD S10 5DT",
    "coordinates": "53.3800222, -1.5189749",
    "lat": 53.3800222,
    "lng": -1.5189749
  },
  {
    "name": "Darby Digger",
    "road": "Radwinter Avenue",
    "location": "ESSEX",
    "postcode": "SS12 9PT",
    "address": "Radwinter Avenue ESSEX SS12 9PT",
    "coordinates": "51.6013173, 0.520716",
    "lat": 51.6013173,
    "lng": 0.520716
  },
  {
    "name": "De Rodes Arms",
    "road": "Church Street",
    "location": "CHESTERFIELD",
    "postcode": "S43 4ER",
    "address": "Church Street CHESTERFIELD S43 4ER",
    "coordinates": "53.2893129, -1.2855192",
    "lat": 53.2893129,
    "lng": -1.2855192
  },
  {
    "name": "Drawbridge",
    "road": "Fellowsfield Way",
    "location": "ROTHERHAM",
    "postcode": "S61 1JN",
    "address": "Fellowsfield Way ROTHERHAM S61 1JN",
    "coordinates": "53.4382185, -1.393558",
    "lat": 53.4382185,
    "lng": -1.393558
  },
  {
    "name": "Farmers Arms",
    "road": "Wham Lane",
    "location": "PRESTON",
    "postcode": "PR4 4JS",
    "address": "Wham Lane PRESTON PR4 4JS",
    "coordinates": "53.7229551, -2.7320866",
    "lat": 53.7229551,
    "lng": -2.7320866
  },
  {
    "name": "Ferry Hotel",
    "road": "1 Promenade",
    "location": "BARROW-IN-FURNESS",
    "postcode": "LA14 3PE",
    "address": "1 Promenade BARROW-IN-FURNESS LA14 3PE",
    "coordinates": "54.10850989999999, -3.2468637",
    "lat": 54.1085099,
    "lng": -3.2468637
  },
  {
    "name": "Fox",
    "road": "Walmley Road",
    "location": "SUTTON COLDFIELD",
    "postcode": "B76 1NP",
    "address": "Walmley Road SUTTON COLDFIELD B76 1NP",
    "coordinates": "52.5410046, -1.800334",
    "lat": 52.5410046,
    "lng": -1.800334
  },
  {
    "name": "Gap Inn",
    "road": "Church Lane",
    "location": "NOTTINGHAM",
    "postcode": "NG13 0FD",
    "address": "Church Lane NOTTINGHAM NG13 0FD",
    "coordinates": "52.9324774, -0.7670553",
    "lat": 52.9324774,
    "lng": -0.7670553
  },
  {
    "name": "Goat",
    "road": "47 Upper Halliford Road",
    "location": "SHEPPERTON",
    "postcode": "TW17 8RX",
    "address": "47 Upper Halliford Road SHEPPERTON TW17 8RX",
    "coordinates": "51.4015056, -0.4329394",
    "lat": 51.4015056,
    "lng": -0.4329394
  },
  {
    "name": "Goose",
    "road": "2 Eldon Gardens",
    "location": "NEWCASTLE UPON TYNE",
    "postcode": "NE1 7RA",
    "address": "2 Eldon Gardens NEWCASTLE UPON TYNE NE1 7RA",
    "coordinates": "54.9750392, -1.6150682",
    "lat": 54.9750392,
    "lng": -1.6150682
  },
  {
    "name": "Green Tree Inn",
    "road": "Tudworth Road",
    "location": "DONCASTER",
    "postcode": "DN7 6NL",
    "address": "Tudworth Road DONCASTER DN7 6NL",
    "coordinates": "53.5802344, -0.968198",
    "lat": 53.5802344,
    "lng": -0.968198
  },
  {
    "name": "Greenhills",
    "road": "Greenhill Road",
    "location": "LIVERPOOL",
    "postcode": "L18 7HN",
    "address": "Greenhill Road LIVERPOOL L18 7HN",
    "coordinates": "53.3726675, -2.9031893",
    "lat": 53.3726675,
    "lng": -2.9031893
  },
  {
    "name": "Harvester - Aintree Park",
    "road": "Unit 10 Aintree Racecourse Retail Park",
    "location": "Liverpool",
    "postcode": "L9 5AY",
    "address": "Unit 10 Aintree Racecourse Retail Park Liverpool L9 5AY",
    "coordinates": "53.4792263, -2.9521395",
    "lat": 53.4792263,
    "lng": -2.9521395
  },
  {
    "name": "Harvester - Alma Park",
    "road": "Alma Leisure Park",
    "location": "CHESTERFIELD",
    "postcode": "S40 2EZ",
    "address": "Alma Leisure Park CHESTERFIELD S40 2EZ",
    "coordinates": "53.2280947, -1.4228424",
    "lat": 53.2280947,
    "lng": -1.4228424
  },
  {
    "name": "Harvester - Alwalton",
    "road": "East of England Way",
    "location": "PETERBOROUGH",
    "postcode": "PE2 6HE",
    "address": "East of England Way PETERBOROUGH PE2 6HE",
    "coordinates": "52.5480858, -0.3230257",
    "lat": 52.5480858,
    "lng": -0.3230257
  },
  {
    "name": "Harvester - Amesbury Archer",
    "road": "Mid Summer Place",
    "location": "SALISBURY",
    "postcode": "SP4 7SQ",
    "address": "Mid Summer Place SALISBURY SP4 7SQ",
    "coordinates": "51.1772319, -1.7572474",
    "lat": 51.1772319,
    "lng": -1.7572474
  },
  {
    "name": "Harvester - Ancient Briton",
    "road": "46 Harpenden Road",
    "location": "ST. ALBANS",
    "postcode": "AL3 5AH",
    "address": "46 Harpenden Road ST. ALBANS AL3 5AH",
    "coordinates": "51.7655267, -0.3351213",
    "lat": 51.7655267,
    "lng": -0.3351213
  },
  {
    "name": "Harvester - Apollo",
    "road": "Unit 1 Apollo Park",
    "location": "WARRINGTON",
    "postcode": "WA5 7YA",
    "address": "Unit 1 Apollo Park WARRINGTON WA5 7YA",
    "coordinates": "53.4151687, -2.6387449",
    "lat": 53.4151687,
    "lng": -2.6387449
  },
  {
    "name": "Harvester - Arden Oak",
    "road": "Arden Oak Road",
    "location": "BIRMINGHAM",
    "postcode": "B26 3LU",
    "address": "Arden Oak Road BIRMINGHAM B26 3LU",
    "coordinates": "52.452457, -1.7702564",
    "lat": 52.452457,
    "lng": -1.7702564
  },
  {
    "name": "Harvester - Atherleigh",
    "road": "Parsonage Way",
    "location": "LEIGH",
    "postcode": "WN7 5SJ",
    "address": "Parsonage Way LEIGH WN7 5SJ",
    "coordinates": "53.5003297, -2.5286624",
    "lat": 53.5003297,
    "lng": -2.5286624
  },
  {
    "name": "Harvester - Aylesbury",
    "road": "Bicester Road",
    "location": "Aylesbury",
    "postcode": "HP19 8BU",
    "address": "Bicester Road Aylesbury HP19 8BU",
    "coordinates": "51.8246224, -0.8338717",
    "lat": 51.8246224,
    "lng": -0.8338717
  },
  {
    "name": "Harvester - Barn",
    "road": "Barnfield Drive",
    "location": "CHICHESTER",
    "postcode": "PO19 7AG",
    "address": "Barnfield Drive CHICHESTER PO19 7AG",
    "coordinates": "50.8461311, -0.761292",
    "lat": 50.8461311,
    "lng": -0.761292
  },
  {
    "name": "Harvester - Bassetts Pole",
    "road": "Tamworth Road",
    "location": "SUTTON COLDFIELD",
    "postcode": "B75 5SA",
    "address": "Tamworth Road SUTTON COLDFIELD B75 5SA",
    "coordinates": "52.5784842, -1.8046815",
    "lat": 52.5784842,
    "lng": -1.8046815
  },
  {
    "name": "Harvester - Beacon",
    "road": "Birmingham Road",
    "location": "BIRMINGHAM",
    "postcode": "B43 7AG",
    "address": "Birmingham Road BIRMINGHAM B43 7AG",
    "coordinates": "52.5576322, -1.9371748",
    "lat": 52.5576322,
    "lng": -1.9371748
  },
  {
    "name": "Harvester - Beacon Quay",
    "road": "Beacon Quay",
    "location": "TORQUAY",
    "postcode": "TQ1 2RD",
    "address": "Beacon Quay TORQUAY TQ1 2RD",
    "coordinates": "50.4584338, -3.5251797",
    "lat": 50.4584338,
    "lng": -3.5251797
  },
  {
    "name": "Harvester - Beaten Track",
    "road": "Old Potts Way",
    "location": "SHREWSBURY",
    "postcode": "SY3 7ET",
    "address": "Old Potts Way SHREWSBURY SY3 7ET",
    "coordinates": "52.7036366, -2.7415493",
    "lat": 52.7036366,
    "lng": -2.7415493
  },
  {
    "name": "Harvester - Beech Hurst",
    "road": "Butlers Green Road",
    "location": "HAYWARDS HEATH",
    "postcode": "RH16 4BB",
    "address": "Butlers Green Road HAYWARDS HEATH RH16 4BB",
    "coordinates": "50.9995207, -0.1166795",
    "lat": 50.9995207,
    "lng": -0.1166795
  },
  {
    "name": "Harvester - Beehive",
    "road": "Beehive Lane",
    "location": "ESSEX",
    "postcode": "IG4 5DR",
    "address": "Beehive Lane ESSEX IG4 5DR",
    "coordinates": "51.5771846, 0.0598259",
    "lat": 51.5771846,
    "lng": 0.0598259
  },
  {
    "name": "Harvester - Bell & Barge",
    "road": "Brownsover Road",
    "location": "WARWICKSHIRE",
    "postcode": "CV21 1HL",
    "address": "Brownsover Road WARWICKSHIRE CV21 1HL",
    "coordinates": "52.3914694, -1.2748281",
    "lat": 52.3914694,
    "lng": -1.2748281
  },
  {
    "name": "Harvester - Bells Of Ouzley",
    "road": "Straight Road",
    "location": "BERKSHIRE",
    "postcode": "SL4 2SH",
    "address": "Straight Road BERKSHIRE SL4 2SH",
    "coordinates": "51.4518555, -0.5735576",
    "lat": 51.4518555,
    "lng": -0.5735576
  },
  {
    "name": "Harvester - Beulah Spa",
    "road": "Beulah Hill",
    "location": "LONDON",
    "postcode": "SE19 3DS",
    "address": "Beulah Hill LONDON SE19 3DS",
    "coordinates": "51.413901, -0.092233",
    "lat": 51.413901,
    "lng": -0.092233
  },
  {
    "name": "Harvester - Blacksmiths Arms",
    "road": "Old Marlow Road",
    "location": "HIGH WYCOMBE",
    "postcode": "HP10 9QD",
    "address": "Old Marlow Road HIGH WYCOMBE HP10 9QD",
    "coordinates": "51.6167744, -0.7672504",
    "lat": 51.6167744,
    "lng": -0.7672504
  },
  {
    "name": "Harvester - Boldmere",
    "road": "Boldmere Road",
    "location": "WEST MIDLANDS",
    "postcode": "B73 5UP",
    "address": "Boldmere Road WEST MIDLANDS B73 5UP",
    "coordinates": "52.5480293, -1.8410858",
    "lat": 52.5480293,
    "lng": -1.8410858
  },
  {
    "name": "Harvester - Borderer",
    "road": "323 Malpas Road",
    "location": "GWENT",
    "postcode": "NP20 6EP",
    "address": "323 Malpas Road GWENT NP20 6EP",
    "coordinates": "51.6077972, -3.0085953",
    "lat": 51.6077972,
    "lng": -3.0085953
  },
  {
    "name": "Harvester - Brayford Wharf",
    "road": "Brayford Wharf North",
    "location": "LINCOLN",
    "postcode": "LN1 1YW",
    "address": "Brayford Wharf North LINCOLN LN1 1YW",
    "coordinates": "53.2294062, -0.5464529",
    "lat": 53.2294062,
    "lng": -0.5464529
  },
  {
    "name": "Harvester - Bridge",
    "road": "London Road",
    "location": "OXFORD",
    "postcode": "OX33 1JH",
    "address": "London Road OXFORD OX33 1JH",
    "coordinates": "51.743668, -1.1201575",
    "lat": 51.743668,
    "lng": -1.1201575
  },
  {
    "name": "Harvester - Britannia",
    "road": "98 Grinstead Lane",
    "location": "WEST SUSSEX",
    "postcode": "BN15 9DP",
    "address": "98 Grinstead Lane WEST SUSSEX BN15 9DP",
    "coordinates": "50.8313507, -0.3194536",
    "lat": 50.8313507,
    "lng": -0.3194536
  },
  {
    "name": "Harvester - Broxden Manor",
    "road": "3 Broxden Avenue",
    "location": "PERTH",
    "postcode": "PH2 0PX",
    "address": "3 Broxden Avenue PERTH PH2 0PX",
    "coordinates": "56.3879882, -3.4816804",
    "lat": 56.3879882,
    "lng": -3.4816804
  },
  {
    "name": "Harvester - Buccaneer",
    "road": "14 The Avenue",
    "location": "HAMPSHIRE",
    "postcode": "PO14 1NS",
    "address": "14 The Avenue HAMPSHIRE PO14 1NS",
    "coordinates": "50.852931, -1.194854",
    "lat": 50.852931,
    "lng": -1.194854
  },
  {
    "name": "Harvester - Buckshaw",
    "road": "Buckshaw Avenue/Buckshaw Village",
    "location": "LANCASHIRE",
    "postcode": "PR7 7EL",
    "address": "Buckshaw Avenue/Buckshaw Village LANCASHIRE PR7 7EL",
    "coordinates": "53.6744334, -2.6522535",
    "lat": 53.6744334,
    "lng": -2.6522535
  },
  {
    "name": "Harvester - Bulldog",
    "road": "556 London Road",
    "location": "MIDDLESEX",
    "postcode": "TW15 3AF",
    "address": "556 London Road MIDDLESEX TW15 3AF",
    "coordinates": "51.4426976, -0.4734961",
    "lat": 51.4426976,
    "lng": -0.4734961
  },
  {
    "name": "Harvester - Bybrook Barn",
    "road": "Canterbury Road",
    "location": "KENT",
    "postcode": "TN24 8QQ",
    "address": "Canterbury Road KENT TN24 8QQ",
    "coordinates": "51.1574135, 0.8798292",
    "lat": 51.1574135,
    "lng": 0.8798292
  },
  {
    "name": "Harvester - Cardiff Bay",
    "road": "Dunleavy Drive",
    "location": "CARDIFF",
    "postcode": "CF11 0SN",
    "address": "Dunleavy Drive CARDIFF CF11 0SN",
    "coordinates": "51.452576, -3.1880612",
    "lat": 51.452576,
    "lng": -3.1880612
  },
  {
    "name": "Harvester - Castlegate",
    "road": "Castlegate",
    "location": "DUDLEY",
    "postcode": "DY1 4TA",
    "address": "Castlegate DUDLEY DY1 4TA",
    "coordinates": "52.515132, -2.0720755",
    "lat": 52.515132,
    "lng": -2.0720755
  },
  {
    "name": "Harvester - Clifton Moor",
    "road": "Stirling Road",
    "location": "York",
    "postcode": "YO30 4XY",
    "address": "Stirling Road York YO30 4XY",
    "coordinates": "53.9912089, -1.1015901",
    "lat": 53.9912089,
    "lng": -1.1015901
  },
  {
    "name": "Harvester - Coed-y-Goras",
    "road": "Circle Way East",
    "location": "CARDIFF",
    "postcode": "CF23 9PD",
    "address": "Circle Way East CARDIFF CF23 9PD",
    "coordinates": "51.5132749, -3.1443027",
    "lat": 51.5132749,
    "lng": -3.1443027
  },
  {
    "name": "Harvester - Colton Mill",
    "road": "Stile Hill Way",
    "location": "LEEDS",
    "postcode": "LS15 9JH",
    "address": "Stile Hill Way LEEDS LS15 9JH",
    "coordinates": "53.7921989, -1.4323053",
    "lat": 53.7921989,
    "lng": -1.4323053
  },
  {
    "name": "Harvester - Compasses",
    "road": "125 Abbs Cross Lane",
    "location": "ESSEX",
    "postcode": "RM12 4XS",
    "address": "125 Abbs Cross Lane ESSEX RM12 4XS",
    "coordinates": "51.5578338, 0.2094439",
    "lat": 51.5578338,
    "lng": 0.2094439
  },
  {
    "name": "Harvester - Cooper Dean",
    "road": "700 Castle Lane West",
    "location": "DORSET",
    "postcode": "BH8 9UQ",
    "address": "700 Castle Lane West DORSET BH8 9UQ",
    "coordinates": "50.7478561, -1.8298947",
    "lat": 50.7478561,
    "lng": -1.8298947
  },
  {
    "name": "Harvester - Cricketers",
    "road": "36, Addington Village Rd",
    "location": "CROYDON",
    "postcode": "CR0 5AQ",
    "address": "36, Addington Village Rd CROYDON CR0 5AQ",
    "coordinates": "51.3577818, -0.0329974",
    "lat": 51.3577818,
    "lng": -0.0329974
  },
  {
    "name": "Harvester - Croft",
    "road": "R&L Park",
    "location": "",
    "postcode": "CH62 3PN",
    "address": "R&L Park  CH62 3PN",
    "coordinates": "53.34099029999999, -2.9770186",
    "lat": 53.3409903,
    "lng": -2.9770186
  },
  {
    "name": "Harvester - Crooked Billet",
    "road": "286 Southborough Lane",
    "location": "KENT",
    "postcode": "BR2 8AA",
    "address": "286 Southborough Lane KENT BR2 8AA",
    "coordinates": "51.390187, 0.0541155",
    "lat": 51.390187,
    "lng": 0.0541155
  },
  {
    "name": "Harvester - Crown Inn",
    "road": "126 Bath Road",
    "location": "BRISTOL",
    "postcode": "BS30 9DE",
    "address": "126 Bath Road BRISTOL BS30 9DE",
    "coordinates": "51.4322248, -2.5458035",
    "lat": 51.4322248,
    "lng": -2.5458035
  },
  {
    "name": "Harvester - Croxley Green",
    "road": "Watford Road",
    "location": "RICKMANSWORTH",
    "postcode": "WD3 3RX",
    "address": "Watford Road RICKMANSWORTH WD3 3RX",
    "coordinates": "51.6510575, -0.4313734",
    "lat": 51.6510575,
    "lng": -0.4313734
  },
  {
    "name": "Harvester - Derby",
    "road": "Bay View Drive",
    "location": "WALLASEY",
    "postcode": "CH45 3QS",
    "address": "Bay View Drive WALLASEY CH45 3QS",
    "coordinates": "53.4318027, -3.0758178",
    "lat": 53.4318027,
    "lng": -3.0758178
  },
  {
    "name": "Harvester - Dog",
    "road": "Henley Road",
    "location": "STUDLEY",
    "postcode": "B80 7DR",
    "address": "Henley Road STUDLEY B80 7DR",
    "coordinates": "52.3004699, -1.8710431",
    "lat": 52.3004699,
    "lng": -1.8710431
  },
  {
    "name": "Harvester - Durley Inn",
    "road": "Durley Chine Road",
    "location": "BOURNEMOUTH",
    "postcode": "BH2 5JF",
    "address": "Durley Chine Road BOURNEMOUTH BH2 5JF",
    "coordinates": "50.7185432, -1.8897239",
    "lat": 50.7185432,
    "lng": -1.8897239
  },
  {
    "name": "Harvester - East Kilbride",
    "road": "Eaglesham Road",
    "location": "GLASGOW",
    "postcode": "G75 8LW",
    "address": "Eaglesham Road GLASGOW G75 8LW",
    "coordinates": "55.7638118, -4.2072278",
    "lat": 55.7638118,
    "lng": -4.2072278
  },
  {
    "name": "Harvester - Eastlake",
    "road": "East Lake Park Tongwell Street",
    "location": "MILTON KEYNES",
    "postcode": "MK15 0SB",
    "address": "East Lake Park Tongwell Street MILTON KEYNES MK15 0SB",
    "coordinates": "52.0498581, -0.708842",
    "lat": 52.0498581,
    "lng": -0.708842
  },
  {
    "name": "Harvester - Elms",
    "road": "Birmingham Road",
    "location": "COVENTRY",
    "postcode": "CV5 9TZ",
    "address": "Birmingham Road COVENTRY CV5 9TZ",
    "coordinates": "52.4221462, -1.5573196",
    "lat": 52.4221462,
    "lng": -1.5573196
  },
  {
    "name": "Harvester - Falcon",
    "road": "Lingfield Crescent",
    "location": "LONDON",
    "postcode": "SE9 2RN",
    "address": "Lingfield Crescent LONDON SE9 2RN",
    "coordinates": "51.4587666, 0.0799755",
    "lat": 51.4587666,
    "lng": 0.0799755
  },
  {
    "name": "Harvester - Five Bells",
    "road": "London Road",
    "location": "BASILDON",
    "postcode": "SS16 5LD",
    "address": "London Road BASILDON SS16 5LD",
    "coordinates": "51.5556299, 0.477283",
    "lat": 51.5556299,
    "lng": 0.477283
  },
  {
    "name": "Harvester - Flamstead",
    "road": "London Road",
    "location": "ST. ALBANS",
    "postcode": "AL3 8HT",
    "address": "London Road ST. ALBANS AL3 8HT",
    "coordinates": "51.7414278, -0.3201142",
    "lat": 51.7414278,
    "lng": -0.3201142
  },
  {
    "name": "Harvester - Fort",
    "road": "Fort Retail Park",
    "location": "ERDINGTON",
    "postcode": "B24 9FP",
    "address": "Fort Retail Park ERDINGTON B24 9FP",
    "coordinates": "52.50775700000001, -1.8202774",
    "lat": 52.507757,
    "lng": -1.8202774
  },
  {
    "name": "Harvester - Fountain",
    "road": "London Road",
    "location": "MILTON KEYNES",
    "postcode": "MK5 8AF",
    "address": "London Road MILTON KEYNES MK5 8AF",
    "coordinates": "52.0256659, -0.7836821",
    "lat": 52.0256659,
    "lng": -0.7836821
  },
  {
    "name": "Harvester - Foxhunt",
    "road": "Hagley Road",
    "location": "HALESOWEN",
    "postcode": "B63 1DQ",
    "address": "Hagley Road HALESOWEN B63 1DQ",
    "coordinates": "52.4388545, -2.0746677",
    "lat": 52.4388545,
    "lng": -2.0746677
  },
  {
    "name": "Harvester - Garston",
    "road": "St. Albans Road",
    "location": "WATFORD",
    "postcode": "WD25 0LL",
    "address": "St. Albans Road WATFORD WD25 0LL",
    "coordinates": "51.679186, -0.3960491",
    "lat": 51.679186,
    "lng": -0.3960491
  },
  {
    "name": "Harvester - George",
    "road": "Epsom Road",
    "location": "SURREY",
    "postcode": "SM4 5PJ",
    "address": "Epsom Road SURREY SM4 5PJ",
    "coordinates": "49.1913466, -122.8490125",
    "lat": 49.1913466,
    "lng": -122.8490125
  },
  {
    "name": "Harvester - George Stephenson",
    "road": "Stephenson Avenue",
    "location": "WALSALL",
    "postcode": "WS2 7EU",
    "address": "Stephenson Avenue WALSALL WS2 7EU",
    "coordinates": "52.5999265, -2.0026561",
    "lat": 52.5999265,
    "lng": -2.0026561
  },
  {
    "name": "Harvester - Ghillies Lair",
    "road": "Great Southern Road",
    "location": "ABERDEEN",
    "postcode": "AB12 5XA",
    "address": "Great Southern Road ABERDEEN AB12 5XA",
    "coordinates": "57.1256164, -2.1113668",
    "lat": 57.1256164,
    "lng": -2.1113668
  },
  {
    "name": "Harvester - Gidea Park",
    "road": "91 Main Road",
    "location": "ESSEX",
    "postcode": "RM2 5EL",
    "address": "91 Main Road ESSEX RM2 5EL",
    "coordinates": "51.586947, 0.2004793",
    "lat": 51.586947,
    "lng": 0.2004793
  },
  {
    "name": "Harvester - Golden Fleece",
    "road": "101 London Road",
    "location": "ESSEX",
    "postcode": "CM14 4NP",
    "address": "101 London Road ESSEX CM14 4NP",
    "coordinates": "51.6129526, 0.2773155",
    "lat": 51.6129526,
    "lng": 0.2773155
  },
  {
    "name": "Harvester - Gowerton",
    "road": "Victoria Road",
    "location": "SWANSEA",
    "postcode": "SA4 3AB",
    "address": "Victoria Road SWANSEA SA4 3AB",
    "coordinates": "51.6558264, -4.0391145",
    "lat": 51.6558264,
    "lng": -4.0391145
  },
  {
    "name": "Harvester - Grange Park",
    "road": "Loake Close",
    "location": "NORTHAMPTON",
    "postcode": "NN4 5EZ",
    "address": "Loake Close NORTHAMPTON NN4 5EZ",
    "coordinates": "52.1863337, -0.891427",
    "lat": 52.1863337,
    "lng": -0.891427
  },
  {
    "name": "Harvester - Gravesend",
    "road": "Rochester Road",
    "location": "KENT",
    "postcode": "DA12 4TN",
    "address": "Rochester Road KENT DA12 4TN",
    "coordinates": "51.4314041, 0.3959224",
    "lat": 51.4314041,
    "lng": 0.3959224
  },
  {
    "name": "Harvester - Grays",
    "road": "A1306 (Arterial Road)",
    "location": "ESSEX",
    "postcode": "RM16 5UR",
    "address": "A1306 (Arterial Road) ESSEX RM16 5UR",
    "coordinates": "51.4945834, 0.3055944",
    "lat": 51.4945834,
    "lng": 0.3055944
  },
  {
    "name": "Harvester - Great Salterns",
    "road": "Eastern Road",
    "location": "PORTSMOUTH",
    "postcode": "PO3 6QB",
    "address": "Eastern Road PORTSMOUTH PO3 6QB",
    "coordinates": "50.8124762, -1.0417733",
    "lat": 50.8124762,
    "lng": -1.0417733
  },
  {
    "name": "Harvester - Greyhound",
    "road": "900 High Road",
    "location": "ESSEX",
    "postcode": "RM6 4HU",
    "address": "900 High Road ESSEX RM6 4HU",
    "coordinates": "51.5682311, 0.1194628",
    "lat": 51.5682311,
    "lng": 0.1194628
  },
  {
    "name": "Harvester - Griffin",
    "road": "Blackbrook Park Avenue",
    "location": "SOMERSET",
    "postcode": "TA1 2PX",
    "address": "Blackbrook Park Avenue SOMERSET TA1 2PX",
    "coordinates": "51.015073, -3.0683618",
    "lat": 51.015073,
    "lng": -3.0683618
  },
  {
    "name": "Harvester - Halbeath Park",
    "road": "Unit 8 Halbeath Park",
    "location": "DUNFERMLINE",
    "postcode": "KY11 4LP",
    "address": "Unit 8 Halbeath Park DUNFERMLINE KY11 4LP",
    "coordinates": "56.0815028, -3.4089017",
    "lat": 56.0815028,
    "lng": -3.4089017
  },
  {
    "name": "Harvester - Ham Farm",
    "road": "Twyford Road",
    "location": "HAMPSHIRE",
    "postcode": "SO50 4LF",
    "address": "Twyford Road HAMPSHIRE SO50 4LF",
    "coordinates": "50.984791, -1.3511302",
    "lat": 50.984791,
    "lng": -1.3511302
  },
  {
    "name": "Harvester - Hawth Park",
    "road": "Haslett Avenue East",
    "location": "CRAWLEY",
    "postcode": "RH10 1UJ",
    "address": "Haslett Avenue East CRAWLEY RH10 1UJ",
    "coordinates": "51.1143541, -0.171896",
    "lat": 51.1143541,
    "lng": -0.171896
  },
  {
    "name": "Harvester - Hillington",
    "road": "Napier Road",
    "location": "GLASGOW",
    "postcode": "G52 4DR",
    "address": "Napier Road GLASGOW G52 4DR",
    "coordinates": "55.8643098, -4.368797",
    "lat": 55.8643098,
    "lng": -4.368797
  },
  {
    "name": "Harvester - Honey Pot",
    "road": "Cranes Farm Road",
    "location": "BASILDON",
    "postcode": "SS14 3TJ",
    "address": "Cranes Farm Road BASILDON SS14 3TJ",
    "coordinates": "51.582154, 0.4632852",
    "lat": 51.582154,
    "lng": 0.4632852
  },
  {
    "name": "Harvester - Horse & Groom",
    "road": "Bagshot Road",
    "location": "BERKSHIRE",
    "postcode": "RG12 9RB",
    "address": "Bagshot Road BERKSHIRE RG12 9RB",
    "coordinates": "51.4078694, -0.7480082",
    "lat": 51.4078694,
    "lng": -0.7480082
  },
  {
    "name": "Harvester - Horse & Groom",
    "road": "136 Main Road",
    "location": "SIDCUP",
    "postcode": "DA14 6NZ",
    "address": "136 Main Road SIDCUP DA14 6NZ",
    "coordinates": "51.4265172, 0.09605179999999999",
    "lat": 51.4265172,
    "lng": 0.0960518
  },
  {
    "name": "Harvester - Horse & Groom",
    "road": "1 High Street",
    "location": "EAST SUSSEX",
    "postcode": "BN26 5HA",
    "address": "1 High Street EAST SUSSEX BN26 5HA",
    "coordinates": "50.8194926, 0.2419585",
    "lat": 50.8194926,
    "lng": 0.2419585
  },
  {
    "name": "Harvester - Horwich Park Inn",
    "road": "1, Arena Approach",
    "location": "BOLTON",
    "postcode": "BL6 6LB",
    "address": "1, Arena Approach BOLTON BL6 6LB",
    "coordinates": "53.57913509999999, -2.5371127",
    "lat": 53.5791351,
    "lng": -2.5371127
  },
  {
    "name": "Harvester - Jolly Badger",
    "road": "128 Hale Lane",
    "location": "EDGWARE",
    "postcode": "HA8 9RZ",
    "address": "128 Hale Lane EDGWARE HA8 9RZ",
    "coordinates": "51.6170844, -0.2604195",
    "lat": 51.6170844,
    "lng": -0.2604195
  },
  {
    "name": "Harvester - Katarina",
    "road": "Village Square",
    "location": "BRIGHTON",
    "postcode": "BN2 5WD",
    "address": "Village Square BRIGHTON BN2 5WD",
    "coordinates": "50.81327539999999, -0.1007971",
    "lat": 50.8132754,
    "lng": -0.1007971
  },
  {
    "name": "Harvester - Kings Head",
    "road": "Guildford Road",
    "location": "CAMBERLEY",
    "postcode": "GU16 6NR",
    "address": "Guildford Road CAMBERLEY GU16 6NR",
    "coordinates": "51.3000032, -0.7236993",
    "lat": 51.3000032,
    "lng": -0.7236993
  },
  {
    "name": "Harvester - Larkswood",
    "road": "Larkswood Leisure Park",
    "location": "CHINGFORD",
    "postcode": "E4 9EY",
    "address": "Larkswood Leisure Park CHINGFORD E4 9EY",
    "coordinates": "51.6174231, -0.0060709",
    "lat": 51.6174231,
    "lng": -0.0060709
  },
  {
    "name": "Harvester - Llandarcy",
    "road": "Junction 43, M4",
    "location": "NEATH, WEST GLAM",
    "postcode": "SA10 6GZ",
    "address": "Junction 43, M4 NEATH, WEST GLAM SA10 6GZ",
    "coordinates": "51.656991, -3.805476",
    "lat": 51.656991,
    "lng": -3.805476
  },
  {
    "name": "Harvester - Llantrisant",
    "road": "Talbot Green Shopping Park",
    "location": "Llantrisant",
    "postcode": "CF72 8LW",
    "address": "Talbot Green Shopping Park Llantrisant CF72 8LW",
    "coordinates": "51.5370882, -3.3805544",
    "lat": 51.5370882,
    "lng": -3.3805544
  },
  {
    "name": "Harvester - Madeira",
    "road": "No 1 Madeira Drive",
    "location": "BRIGHTON",
    "postcode": "BN2 1AY",
    "address": "No 1 Madeira Drive BRIGHTON BN2 1AY",
    "coordinates": "50.8191374, -0.1326662",
    "lat": 50.8191374,
    "lng": -0.1326662
  },
  {
    "name": "Harvester - Mallard",
    "road": "507 London Road",
    "location": "HEMEL HEMPSTEAD",
    "postcode": "HP3 9BQ",
    "address": "507 London Road HEMEL HEMPSTEAD HP3 9BQ",
    "coordinates": "51.7427268, -0.4895689999999999",
    "lat": 51.7427268,
    "lng": -0.489569
  },
  {
    "name": "Harvester - Mandeville Arms",
    "road": "Mandeville Road",
    "location": "MIDDLESEX",
    "postcode": "UB5 4LU",
    "address": "Mandeville Road MIDDLESEX UB5 4LU",
    "coordinates": "51.5491763, -0.3661142",
    "lat": 51.5491763,
    "lng": -0.3661142
  },
  {
    "name": "Harvester - Mansion House",
    "road": "Liebenrood Road",
    "location": "READING",
    "postcode": "RG30 2ND",
    "address": "Liebenrood Road READING RG30 2ND",
    "coordinates": "51.4500689, -1.0036241",
    "lat": 51.4500689,
    "lng": -1.0036241
  },
  {
    "name": "Harvester - Meadowhall",
    "road": "Unit 13, The Oasis",
    "location": "SHEFFIELD",
    "postcode": "S9 1EP",
    "address": "Unit 13, The Oasis SHEFFIELD S9 1EP",
    "coordinates": "53.4140847, -1.4127931",
    "lat": 53.4140847,
    "lng": -1.4127931
  },
  {
    "name": "Harvester - Meridian Park",
    "road": "Meridian Leisure Park",
    "location": "Leicester",
    "postcode": "LE19 1JZ",
    "address": "Meridian Leisure Park Leicester LE19 1JZ",
    "coordinates": "52.6135009, -1.1878965",
    "lat": 52.6135009,
    "lng": -1.1878965
  },
  {
    "name": "Harvester - Montagu Arms",
    "road": "374 London Road",
    "location": "SLOUGH",
    "postcode": "SL3 7HX",
    "address": "374 London Road SLOUGH SL3 7HX",
    "coordinates": "51.49445739999999, -0.5502798999999999",
    "lat": 51.4944574,
    "lng": -0.5502799
  },
  {
    "name": "Harvester - Morfa Parc",
    "road": "Unit 19 Morfa Shopping Parc",
    "location": "SWANSEA",
    "postcode": "SA1 2FB",
    "address": "Unit 19 Morfa Shopping Parc SWANSEA SA1 2FB",
    "coordinates": "51.64360569999999, -3.9268943",
    "lat": 51.6436057,
    "lng": -3.9268943
  },
  {
    "name": "Harvester - Navigation Inn",
    "road": "4 Wharf Road",
    "location": "ENFIELD",
    "postcode": "EN3 4XX",
    "address": "4 Wharf Road ENFIELD EN3 4XX",
    "coordinates": "51.6435484, -0.0295336",
    "lat": 51.6435484,
    "lng": -0.0295336
  },
  {
    "name": "Harvester - Nene Valley",
    "road": "Riverside Retail Park",
    "location": "NORTHAMPTON",
    "postcode": "NN3 9HU",
    "address": "Riverside Retail Park NORTHAMPTON NN3 9HU",
    "coordinates": "52.2420592, -0.8355319999999999",
    "lat": 52.2420592,
    "lng": -0.835532
  },
  {
    "name": "Harvester - Neptune",
    "road": "Undercliffe Road",
    "location": "BOURNEMOUTH",
    "postcode": "BH5 1BN",
    "address": "Undercliffe Road BOURNEMOUTH BH5 1BN",
    "coordinates": "50.7206546, -1.8436704",
    "lat": 50.7206546,
    "lng": -1.8436704
  },
  {
    "name": "Harvester â€“ Newport Retail Spytty",
    "road": "Severn Styles Avenue",
    "location": "NEWPORT",
    "postcode": "NP19 4QR",
    "address": "Severn Styles Avenue NEWPORT NP19 4QR",
    "coordinates": "51.5757221, -2.9431399",
    "lat": 51.5757221,
    "lng": -2.9431399
  },
  {
    "name": "Harvester - Oakmere",
    "road": "High Street",
    "location": "POTTERS BAR",
    "postcode": "EN6 5BT",
    "address": "High Street POTTERS BAR EN6 5BT",
    "coordinates": "51.6968261, -0.1756874",
    "lat": 51.6968261,
    "lng": -0.1756874
  },
  {
    "name": "Harvester - Old Castle",
    "road": "Old Castle Road",
    "location": "WILTS",
    "postcode": "SP1 3SF",
    "address": "Old Castle Road WILTS SP1 3SF",
    "coordinates": "51.0919704, -1.7988169",
    "lat": 51.0919704,
    "lng": -1.7988169
  },
  {
    "name": "Harvester - Old Mill",
    "road": "Felindre",
    "location": "PENCOED",
    "postcode": "CF35 5HU",
    "address": "Felindre PENCOED CF35 5HU",
    "coordinates": "51.522143, -3.4836187",
    "lat": 51.522143,
    "lng": -3.4836187
  },
  {
    "name": "Harvester - Orchard",
    "road": "1 Riverfield Drive",
    "location": "BEDFORD",
    "postcode": "MK41 0UE",
    "address": "1 Riverfield Drive BEDFORD MK41 0UE",
    "coordinates": "52.1439923, -0.4228189",
    "lat": 52.1439923,
    "lng": -0.4228189
  },
  {
    "name": "Harvester - Pavilions West",
    "road": "Unit 4 Pavilions West",
    "location": "PETERBOROUGH",
    "postcode": "PE7 8FD",
    "address": "Unit 4 Pavilions West PETERBOROUGH PE7 8FD",
    "coordinates": "52.54214469999999, -0.2560614",
    "lat": 52.5421447,
    "lng": -0.2560614
  },
  {
    "name": "Harvester - Plough",
    "road": "224 Sutton Common Road",
    "location": "SURREY",
    "postcode": "SM3 9PW",
    "address": "224 Sutton Common Road SURREY SM3 9PW",
    "coordinates": "51.3794437, -0.2007403",
    "lat": 51.3794437,
    "lng": -0.2007403
  },
  {
    "name": "Harvester - Plough",
    "road": "Springfield Road",
    "location": "CHELMSFORD",
    "postcode": "CM2 6BA",
    "address": "Springfield Road CHELMSFORD CM2 6BA",
    "coordinates": "51.7432547, 0.4963796",
    "lat": 51.7432547,
    "lng": 0.4963796
  },
  {
    "name": "Harvester - Poachers Cottage",
    "road": "Stone Road",
    "location": "STOKE ON TRENT",
    "postcode": "ST4 8AA",
    "address": "Stone Road STOKE ON TRENT ST4 8AA",
    "coordinates": "52.9671072, -2.1991379",
    "lat": 52.9671072,
    "lng": -2.1991379
  },
  {
    "name": "Harvester - Pontypool",
    "road": "Lower Mill Field",
    "location": "PONTYPOOL",
    "postcode": "NP4 0RH",
    "address": "Lower Mill Field PONTYPOOL NP4 0RH",
    "coordinates": "51.694783, -3.0234607",
    "lat": 51.694783,
    "lng": -3.0234607
  },
  {
    "name": "Harvester - Port Solent",
    "road": "15 The Boardwalk",
    "location": "PORTSMOUTH",
    "postcode": "PO6 4TP",
    "address": "15 The Boardwalk PORTSMOUTH PO6 4TP",
    "coordinates": "50.8408603, -1.0970763",
    "lat": 50.8408603,
    "lng": -1.0970763
  },
  {
    "name": "Harvester - Potters Kiln",
    "road": "Leisure Way",
    "location": "LOWESTOFT",
    "postcode": "NR32 4TZ",
    "address": "Leisure Way LOWESTOFT NR32 4TZ",
    "coordinates": "52.5031027, 1.7368062",
    "lat": 52.5031027,
    "lng": 1.7368062
  },
  {
    "name": "Harvester - Pride Park",
    "road": "Roundhouse Road",
    "location": "DERBY",
    "postcode": "DE24 8JE",
    "address": "Roundhouse Road DERBY DE24 8JE",
    "coordinates": "52.9157412, -1.4600029",
    "lat": 52.9157412,
    "lng": -1.4600029
  },
  {
    "name": "Harvester - Quayside MediaCityUk",
    "road": "The Quays",
    "location": "MANCHESTER",
    "postcode": "M50 3AH",
    "address": "The Quays MANCHESTER M50 3AH",
    "coordinates": "53.4741129, -2.290348",
    "lat": 53.4741129,
    "lng": -2.290348
  },
  {
    "name": "Harvester - Ravenswood",
    "road": "1 Edith Cook Way",
    "location": "Ipswich",
    "postcode": "IP3 9GF",
    "address": "1 Edith Cook Way Ipswich IP3 9GF",
    "coordinates": "52.0294585, 1.201563",
    "lat": 52.0294585,
    "lng": 1.201563
  },
  {
    "name": "Harvester - Rayleigh Weir",
    "road": "Arterial Road",
    "location": "ESSEX",
    "postcode": "SS6 7SP",
    "address": "Arterial Road ESSEX SS6 7SP",
    "coordinates": "51.5773066, 0.5949411",
    "lat": 51.5773066,
    "lng": 0.5949411
  },
  {
    "name": "Harvester - Redgrove",
    "road": "Hatherley Lane",
    "location": "CHELTENHAM",
    "postcode": "GL51 6TA",
    "address": "Hatherley Lane CHELTENHAM GL51 6TA",
    "coordinates": "51.8920338, -2.1287727",
    "lat": 51.8920338,
    "lng": -2.1287727
  },
  {
    "name": "Harvester - Rhydycar",
    "road": "Merthyr Tidfill Leisure Valley",
    "location": "MERTHYR TIDFILL",
    "postcode": "CF48 1UT",
    "address": "Merthyr Tidfill Leisure Valley MERTHYR TIDFILL CF48 1UT",
    "coordinates": "51.7388412, -3.3781865",
    "lat": 51.7388412,
    "lng": -3.3781865
  },
  {
    "name": "Harvester - Rising Sun",
    "road": "105 Dartford Road",
    "location": "KENT",
    "postcode": "DA1 3EP",
    "address": "105 Dartford Road KENT DA1 3EP",
    "coordinates": "51.44683449999999, 0.2006047",
    "lat": 51.4468345,
    "lng": 0.2006047
  },
  {
    "name": "Harvester - Royal",
    "road": "Boston Road",
    "location": "LONDON",
    "postcode": "W7 2AX",
    "address": "Boston Road LONDON W7 2AX",
    "coordinates": "51.4983839, -0.3271154",
    "lat": 51.4983839,
    "lng": -0.3271154
  },
  {
    "name": "Harvester - Running Horse",
    "road": "Chatham Road",
    "location": "MAIDSTONE",
    "postcode": "ME14 3AG",
    "address": "Chatham Road MAIDSTONE ME14 3AG",
    "coordinates": "51.2942286, 0.5151887",
    "lat": 51.2942286,
    "lng": 0.5151887
  },
  {
    "name": "Harvester - Ryhope",
    "road": "Ryhope Road",
    "location": "SUNDERLAND",
    "postcode": "SR2 0SP",
    "address": "Ryhope Road SUNDERLAND SR2 0SP",
    "coordinates": "54.8785836, -1.3618727",
    "lat": 54.8785836,
    "lng": -1.3618727
  },
  {
    "name": "Harvester - Sea Horse",
    "road": "Alder Road",
    "location": "POOLE",
    "postcode": "BH12 4AY",
    "address": "Alder Road POOLE BH12 4AY",
    "coordinates": "50.7406516, -1.9121795",
    "lat": 50.7406516,
    "lng": -1.9121795
  },
  {
    "name": "Harvester - Shorehouse",
    "road": "Ness Road",
    "location": "SOUTHEND-ON-SEA",
    "postcode": "SS3 9HQ",
    "address": "Ness Road SOUTHEND-ON-SEA SS3 9HQ",
    "coordinates": "51.5238259, 0.7772957",
    "lat": 51.5238259,
    "lng": 0.7772957
  },
  {
    "name": "Harvester - Sir Winston Churchill",
    "road": "710 Bury Road",
    "location": "ROCHDALE",
    "postcode": "OL11 5HW",
    "address": "710 Bury Road ROCHDALE OL11 5HW",
    "coordinates": "53.6078277, -2.2079722",
    "lat": 53.6078277,
    "lng": -2.2079722
  },
  {
    "name": "Harvester - Snuff Mill",
    "road": "207 Frenchay Park Road",
    "location": "BRISTOL",
    "postcode": "BS16 1LF",
    "address": "207 Frenchay Park Road BRISTOL BS16 1LF",
    "coordinates": "51.4951261, -2.5321803",
    "lat": 51.4951261,
    "lng": -2.5321803
  },
  {
    "name": "Harvester - Sovereign Harbour",
    "road": "29 The Waterfront",
    "location": "EASTBOURNE",
    "postcode": "BN23 5UZ",
    "address": "29 The Waterfront EASTBOURNE BN23 5UZ",
    "coordinates": "50.7933835, 0.3259809",
    "lat": 50.7933835,
    "lng": 0.3259809
  },
  {
    "name": "Harvester - Spyglass",
    "road": "Bowleaze Coveway",
    "location": "DORSET",
    "postcode": "DT3 6PN",
    "address": "Bowleaze Coveway DORSET DT3 6PN",
    "coordinates": "50.6350763, -2.4300957",
    "lat": 50.6350763,
    "lng": -2.4300957
  },
  {
    "name": "Harvester - St Catherines",
    "road": "Unit 6",
    "location": "Carmarthen",
    "postcode": "SA31 1GA",
    "address": "Unit 6 Carmarthen SA31 1GA",
    "coordinates": "51.85865219999999, -4.3089412",
    "lat": 51.8586522,
    "lng": -4.3089412
  },
  {
    "name": "Harvester - St David's",
    "road": "Unit 5 Cwmbran Lesuire Park",
    "location": "CWMBRAN",
    "postcode": "NP44 1QS",
    "address": "Unit 5 Cwmbran Lesuire Park CWMBRAN NP44 1QS",
    "coordinates": "51.6546134, -3.0193009",
    "lat": 51.6546134,
    "lng": -3.0193009
  },
  {
    "name": "Harvester - Stag & Hounds",
    "road": "Winchester Road",
    "location": "HAMPSHIRE",
    "postcode": "RG22 6HN",
    "address": "Winchester Road HAMPSHIRE RG22 6HN",
    "coordinates": "51.2496916, -1.1153888",
    "lat": 51.2496916,
    "lng": -1.1153888
  },
  {
    "name": "Harvester - Stanway",
    "road": "London Road",
    "location": "COLCHESTER",
    "postcode": "CO3 8NZ",
    "address": "London Road COLCHESTER CO3 8NZ",
    "coordinates": "51.8863807, 0.8311381",
    "lat": 51.8863807,
    "lng": 0.8311381
  },
  {
    "name": "Harvester - Staunton Arms",
    "road": "1 Whichers Gate Road",
    "location": "PORTSMOUTH",
    "postcode": "PO9 6BB",
    "address": "1 Whichers Gate Road PORTSMOUTH PO9 6BB",
    "coordinates": "50.8840866, -0.9683043",
    "lat": 50.8840866,
    "lng": -0.9683043
  },
  {
    "name": "Harvester - Summerhill House",
    "road": "Swindon Road",
    "location": "WEST MIDLANDS",
    "postcode": "DY6 9XA",
    "address": "Swindon Road WEST MIDLANDS DY6 9XA",
    "coordinates": "52.4963304, -2.1746145",
    "lat": 52.4963304,
    "lng": -2.1746145
  },
  {
    "name": "Harvester - Swan Centre",
    "road": "Unit L1B, The Swan Centre",
    "location": "EASTLEIGH",
    "postcode": "SO50 5FX",
    "address": "Unit L1B, The Swan Centre EASTLEIGH SO50 5FX",
    "coordinates": "50.9670238, -1.3536761",
    "lat": 50.9670238,
    "lng": -1.3536761
  },
  {
    "name": "Harvester - Swindon",
    "road": "Latham Road",
    "location": "SWINDON",
    "postcode": "SN25 4DL",
    "address": "Latham Road SWINDON SN25 4DL",
    "coordinates": "51.6030879, -1.7833349",
    "lat": 51.6030879,
    "lng": -1.7833349
  },
  {
    "name": "Harvester - Talbot",
    "road": "275 High Road",
    "location": "EPPING",
    "postcode": "CM16 6EE",
    "address": "275 High Road EPPING CM16 6EE",
    "coordinates": "51.7235443, 0.1805615",
    "lat": 51.7235443,
    "lng": 0.1805615
  },
  {
    "name": "Harvester - Tarpot",
    "road": "London Road",
    "location": "ESSEX",
    "postcode": "SS7 5SQ",
    "address": "London Road ESSEX SS7 5SQ",
    "coordinates": "51.5673423, 0.5524503",
    "lat": 51.5673423,
    "lng": 0.5524503
  },
  {
    "name": "Harvester - Timberdine",
    "road": "Bath Road",
    "location": "WORCESTER",
    "postcode": "WR5 3HP",
    "address": "Bath Road WORCESTER WR5 3HP",
    "coordinates": "52.1712116, -2.2128086",
    "lat": 52.1712116,
    "lng": -2.2128086
  },
  {
    "name": "Harvester - Treble Bob",
    "road": "Tallys End",
    "location": "CHESTERFIELD",
    "postcode": "S43 4TX",
    "address": "Tallys End CHESTERFIELD S43 4TX",
    "coordinates": "53.2837571, -1.2912486",
    "lat": 53.2837571,
    "lng": -1.2912486
  },
  {
    "name": "Harvester - Trentham Lakes",
    "road": "Stanley Mathews Way",
    "location": "STOKE-ON-TRENT",
    "postcode": "ST4 4TL",
    "address": "Stanley Mathews Way STOKE-ON-TRENT ST4 4TL",
    "coordinates": "52.9779152, -2.1742832",
    "lat": 52.9779152,
    "lng": -2.1742832
  },
  {
    "name": "Harvester - Two Rivers",
    "road": "Tilleys Lane",
    "location": "STAINES",
    "postcode": "TW18 4BL",
    "address": "Tilleys Lane STAINES TW18 4BL",
    "coordinates": "51.4341854, -0.5120252",
    "lat": 51.4341854,
    "lng": -0.5120252
  },
  {
    "name": "Harvester - Unicorn",
    "road": "160 Plymouth Road",
    "location": "PLYMOUTH, DEVON",
    "postcode": "PL7 4NE",
    "address": "160 Plymouth Road PLYMOUTH, DEVON PL7 4NE",
    "coordinates": "50.3911972, -4.07205",
    "lat": 50.3911972,
    "lng": -4.07205
  },
  {
    "name": "Harvester - Wheatsheaf",
    "road": "Station Road",
    "location": "BIRMINGHAM",
    "postcode": "B46 1EE",
    "address": "Station Road BIRMINGHAM B46 1EE",
    "coordinates": "52.5039071, -1.7078427",
    "lat": 52.5039071,
    "lng": -1.7078427
  },
  {
    "name": "Harvester - Wheatsheaf",
    "road": "New Ashby Road",
    "location": "LEICS",
    "postcode": "LE11 4EX",
    "address": "New Ashby Road LEICS LE11 4EX",
    "coordinates": "52.7626021, -1.2471385",
    "lat": 52.7626021,
    "lng": -1.2471385
  },
  {
    "name": "Harvester - White Hart",
    "road": "Watling Street",
    "location": "LEIGHTON BUZZARD",
    "postcode": "LU7 9NB",
    "address": "Watling Street LEIGHTON BUZZARD LU7 9NB",
    "coordinates": "51.9122679, -0.5585359",
    "lat": 51.9122679,
    "lng": -0.5585359
  },
  {
    "name": "Harvester - Whiteley",
    "road": "Unit E1/E2 Whiteley Way",
    "location": "FAREHAM",
    "postcode": "PO15 7LJ",
    "address": "Unit E1/E2 Whiteley Way FAREHAM PO15 7LJ",
    "coordinates": "50.8885947, -1.2474851",
    "lat": 50.8885947,
    "lng": -1.2474851
  },
  {
    "name": "Harvester - Wilford Farm",
    "road": "1 Clifton Lane",
    "location": "NOTTINGHAM",
    "postcode": "NG11 7AT",
    "address": "1 Clifton Lane NOTTINGHAM NG11 7AT",
    "coordinates": "52.9260658, -1.1606235",
    "lat": 52.9260658,
    "lng": -1.1606235
  },
  {
    "name": "Harvester - Willow Brook",
    "road": "Willow Brook Centre",
    "location": "Willow Brook",
    "postcode": "BS32 8EF",
    "address": "Willow Brook Centre Willow Brook BS32 8EF",
    "coordinates": "51.5360329, -2.5474711",
    "lat": 51.5360329,
    "lng": -2.5474711
  },
  {
    "name": "Harvester - Winding Wheel",
    "road": "Carr Wood Road",
    "location": "CASTLEFORD",
    "postcode": "WF10 4PS",
    "address": "Carr Wood Road CASTLEFORD WF10 4PS",
    "coordinates": "53.7140424, -1.3370092",
    "lat": 53.7140424,
    "lng": -1.3370092
  },
  {
    "name": "Harvester - Windmill",
    "road": "Coastguard Road",
    "location": "LITTLEHAMPTON",
    "postcode": "BN17 5LH",
    "address": "Coastguard Road LITTLEHAMPTON BN17 5LH",
    "coordinates": "50.8032014, -0.5416057",
    "lat": 50.8032014,
    "lng": -0.5416057
  },
  {
    "name": "Harvester - Windmill",
    "road": "High Road",
    "location": "BUSHEY",
    "postcode": "WD23 1JD",
    "address": "High Road BUSHEY WD23 1JD",
    "coordinates": "51.632102, -0.3382372",
    "lat": 51.632102,
    "lng": -0.3382372
  },
  {
    "name": "Harvester - Windsor Lad",
    "road": "250 Maidenhead Road",
    "location": "BERKSHIRE",
    "postcode": "SL4 5HQ",
    "address": "250 Maidenhead Road BERKSHIRE SL4 5HQ",
    "coordinates": "51.4854056, -0.6367961",
    "lat": 51.4854056,
    "lng": -0.6367961
  },
  {
    "name": "Harvester - Wych Way In",
    "road": "Worcester Road",
    "location": "DROITWICH",
    "postcode": "WR9 7PA",
    "address": "Worcester Road DROITWICH WR9 7PA",
    "coordinates": "52.2602332, -2.153708",
    "lat": 52.2602332,
    "lng": -2.153708
  },
  {
    "name": "Harvester - Yeoman",
    "road": "St. Nicolas Park Drive",
    "location": "WARWICKSHIRE",
    "postcode": "CV11 6EN",
    "address": "St. Nicolas Park Drive WARWICKSHIRE CV11 6EN",
    "coordinates": "52.529933, -1.4390327",
    "lat": 52.529933,
    "lng": -1.4390327
  },
  {
    "name": "Harvester - Yeoman",
    "road": "81 Old Woking Road",
    "location": "SURREY",
    "postcode": "KT14 6JA",
    "address": "81 Old Woking Road SURREY KT14 6JA",
    "coordinates": "51.3358412, -0.5065286999999999",
    "lat": 51.3358412,
    "lng": -0.5065287
  },
  {
    "name": "Harvester I1379- West Green",
    "road": "Crawley Leisure Park",
    "location": "CRAWLEY",
    "postcode": "RH10 8LR",
    "address": "Crawley Leisure Park CRAWLEY RH10 8LR",
    "coordinates": "51.1201683, -0.1901273",
    "lat": 51.1201683,
    "lng": -0.1901273
  },
  {
    "name": "Haywain",
    "road": "Southampton Road",
    "location": "SOUTHAMPTON",
    "postcode": "SO40 2NA",
    "address": "Southampton Road SOUTHAMPTON SO40 2NA",
    "coordinates": "50.9162867, -1.5599894",
    "lat": 50.9162867,
    "lng": -1.5599894
  },
  {
    "name": "Henbury Arms",
    "road": "189 Henbury Road",
    "location": "BRISTOL",
    "postcode": "BS10 7AD",
    "address": "189 Henbury Road BRISTOL BS10 7AD",
    "coordinates": "51.5060472, -2.6285684",
    "lat": 51.5060472,
    "lng": -2.6285684
  },
  {
    "name": "Highwayman",
    "road": "Great North Road",
    "location": "DONCASTER",
    "postcode": "DN6 7HU",
    "address": "Great North Road DONCASTER DN6 7HU",
    "coordinates": "53.5575764, -1.1819337",
    "lat": 53.5575764,
    "lng": -1.1819337
  },
  {
    "name": "Hole In The Wall",
    "road": "Main Road",
    "location": "NOTTINGHAM",
    "postcode": "NG16 5GQ",
    "address": "Main Road NOTTINGHAM NG16 5GQ",
    "coordinates": "53.0516199, -1.3048234",
    "lat": 53.0516199,
    "lng": -1.3048234
  },
  {
    "name": "Hollybush",
    "road": "Pendwyallt Road",
    "location": "CARDIFF",
    "postcode": "CF14 7EG",
    "address": "Pendwyallt Road CARDIFF CF14 7EG",
    "coordinates": "51.5224179, -3.2356001",
    "lat": 51.5224179,
    "lng": -3.2356001
  },
  {
    "name": "Inn By The Sea",
    "road": "177 Portsmouth Road",
    "location": "LEE-ON-THE-SOLENT",
    "postcode": "PO13 9AD",
    "address": "177 Portsmouth Road LEE-ON-THE-SOLENT PO13 9AD",
    "coordinates": "50.7951373, -1.1943878",
    "lat": 50.7951373,
    "lng": -1.1943878
  },
  {
    "name": "Jug & Bottle",
    "road": "Louth Road",
    "location": "GRIMSBY",
    "postcode": "DN36 5YN",
    "address": "Louth Road GRIMSBY DN36 5YN",
    "coordinates": "53.4990524, -0.0650819",
    "lat": 53.4990524,
    "lng": -0.0650819
  },
  {
    "name": "Kings Arms",
    "road": "Bexhill Road",
    "location": "BATTLE",
    "postcode": "TN33 9JB",
    "address": "Bexhill Road BATTLE TN33 9JB",
    "coordinates": "50.8845471, 0.4274845",
    "lat": 50.8845471,
    "lng": 0.4274845
  },
  {
    "name": "Lambwath",
    "road": "Sutton Road",
    "location": "HULL",
    "postcode": "HU8 0HU",
    "address": "Sutton Road HULL HU8 0HU",
    "coordinates": "53.773939, -0.3063036",
    "lat": 53.773939,
    "lng": -0.3063036
  },
  {
    "name": "Leven Valley",
    "road": "7 Allerdyce Court",
    "location": "GLASGOW",
    "postcode": "G15 6SA",
    "address": "7 Allerdyce Court GLASGOW G15 6SA",
    "coordinates": "55.90236170000001, -4.3759519",
    "lat": 55.9023617,
    "lng": -4.3759519
  },
  {
    "name": "Lord Louis",
    "road": "Glen Road",
    "location": "PLYMOUTH",
    "postcode": "PL7 2DE",
    "address": "Glen Road PLYMOUTH PL7 2DE",
    "coordinates": "50.3890086, -4.0407878",
    "lat": 50.3890086,
    "lng": -4.0407878
  },
  {
    "name": "Malt Shovel",
    "road": "Newton Road",
    "location": "BIRMINGHAM",
    "postcode": "B43 6HN",
    "address": "Newton Road BIRMINGHAM B43 6HN",
    "coordinates": "52.5428798, -1.9551655",
    "lat": 52.5428798,
    "lng": -1.9551655
  },
  {
    "name": "Masons Arms",
    "road": "94 Gloucester Road",
    "location": "BRISTOL",
    "postcode": "BS35 3QJ",
    "address": "94 Gloucester Road BRISTOL BS35 3QJ",
    "coordinates": "51.4744874, -2.5916861",
    "lat": 51.4744874,
    "lng": -2.5916861
  },
  {
    "name": "Mermaid",
    "road": "Redcar Road",
    "location": "REDCAR",
    "postcode": "TS11 6EX",
    "address": "Redcar Road REDCAR TS11 6EX",
    "coordinates": "54.5922929, -1.0288405",
    "lat": 54.5922929,
    "lng": -1.0288405
  },
  {
    "name": "Micker Brook",
    "road": "Councillor Lane",
    "location": "CHEADLE",
    "postcode": "SK8 5NU",
    "address": "Councillor Lane CHEADLE SK8 5NU",
    "coordinates": "53.3913856, -2.1953667",
    "lat": 53.3913856,
    "lng": -2.1953667
  },
  {
    "name": "Moorlands",
    "road": "Owler Bar",
    "location": "SHEFFIELD",
    "postcode": "S17 3BQ",
    "address": "Owler Bar SHEFFIELD S17 3BQ",
    "coordinates": "53.2983442, -1.5610759",
    "lat": 53.2983442,
    "lng": -1.5610759
  },
  {
    "name": "Newbridge",
    "road": "Tettenhall Road",
    "location": "WOLVERHAMPTON",
    "postcode": "WV6 0JU",
    "address": "Tettenhall Road WOLVERHAMPTON WV6 0JU",
    "coordinates": "52.5963801, -2.1585842",
    "lat": 52.5963801,
    "lng": -2.1585842
  },
  {
    "name": "Old Moat House",
    "road": "Moat Lane",
    "location": "LUTON",
    "postcode": "LU3 1UU",
    "address": "Moat Lane LUTON LU3 1UU",
    "coordinates": "51.9029263, -0.4331958",
    "lat": 51.9029263,
    "lng": -0.4331958
  },
  {
    "name": "Old Mother Redcap Hotel",
    "road": "Blackburn Road",
    "location": "BLACKBURN",
    "postcode": "BB1 3LS",
    "address": "Blackburn Road BLACKBURN BB1 3LS",
    "coordinates": "53.7502471, -2.4289701",
    "lat": 53.7502471,
    "lng": -2.4289701
  },
  {
    "name": "Old Quay",
    "road": "Station Road",
    "location": "NESTON",
    "postcode": "CH64 6QJ",
    "address": "Station Road NESTON CH64 6QJ",
    "coordinates": "53.2932334, -3.0784435",
    "lat": 53.2932334,
    "lng": -3.0784435
  },
  {
    "name": "Peacehaven",
    "road": "295 South Coast Road",
    "location": "SUSSEX",
    "postcode": "BN10 7hX",
    "address": "295 South Coast Road SUSSEX BN10 7hX",
    "coordinates": "50.7927074, -0.008766999999999999",
    "lat": 50.7927074,
    "lng": -0.008767
  },
  {
    "name": "Peartree Bridge Inn",
    "road": "Waterside",
    "location": "MILTON KEYNES",
    "postcode": "MK6 3PE",
    "address": "Waterside MILTON KEYNES MK6 3PE",
    "coordinates": "52.0317192, -0.732151",
    "lat": 52.0317192,
    "lng": -0.732151
  },
  {
    "name": "Pig & Whistle",
    "road": "849 Blackpool Road",
    "location": "PRESTON",
    "postcode": "PR2 1QS",
    "address": "849 Blackpool Road PRESTON PR2 1QS",
    "coordinates": "53.7664639, -2.765581",
    "lat": 53.7664639,
    "lng": -2.765581
  },
  {
    "name": "Plume of Feathers",
    "road": "Stratford Road",
    "location": "SOLIHULL",
    "postcode": "B90 3BW",
    "address": "Stratford Road SOLIHULL B90 3BW",
    "coordinates": "52.4065336, -1.8238066",
    "lat": 52.4065336,
    "lng": -1.8238066
  },
  {
    "name": "Pretty Pigs",
    "road": "Shuttington Road",
    "location": "TAMWORTH",
    "postcode": "B79 0ED",
    "address": "Shuttington Road TAMWORTH B79 0ED",
    "coordinates": "52.6403087, -1.6453982",
    "lat": 52.6403087,
    "lng": -1.6453982
  },
  {
    "name": "Prince William",
    "road": "Pioneer Way",
    "location": "YORKSHIRE",
    "postcode": "WF10 5TG",
    "address": "Pioneer Way YORKSHIRE WF10 5TG",
    "coordinates": "53.7112993, -1.3883009",
    "lat": 53.7112993,
    "lng": -1.3883009
  },
  {
    "name": "Punch Tavern",
    "road": "Calcott",
    "location": "CANTERBURY",
    "postcode": "CT3 4NB",
    "address": "Calcott CANTERBURY CT3 4NB",
    "coordinates": "51.32546989999999, 1.1188959",
    "lat": 51.3254699,
    "lng": 1.1188959
  },
  {
    "name": "Radford Bank Inn",
    "road": "Radford Bank",
    "location": "STAFFORD",
    "postcode": "ST17 4PG",
    "address": "Radford Bank STAFFORD ST17 4PG",
    "coordinates": "52.7925305, -2.0913514",
    "lat": 52.7925305,
    "lng": -2.0913514
  },
  {
    "name": "Red Lion",
    "road": "31 High Street",
    "location": "BARNET",
    "postcode": "EN5 5UW",
    "address": "31 High Street BARNET EN5 5UW",
    "coordinates": "51.6524791, -0.1990558",
    "lat": 51.6524791,
    "lng": -0.1990558
  },
  {
    "name": "Red Lion",
    "road": "296 Chorley Road",
    "location": "MANCHESTER",
    "postcode": "M27 9UW",
    "address": "296 Chorley Road MANCHESTER M27 9UW",
    "coordinates": "53.5167489, -2.3518608",
    "lat": 53.5167489,
    "lng": -2.3518608
  },
  {
    "name": "Round Oak",
    "road": "24-26 Merry Hill",
    "location": "DUDLEY",
    "postcode": "DY5 1SB",
    "address": "24-26 Merry Hill DUDLEY DY5 1SB",
    "coordinates": "52.474255, -2.1083402",
    "lat": 52.474255,
    "lng": -2.1083402
  },
  {
    "name": "Royal George",
    "road": "Upper Shoreham Road",
    "location": "SUSSEX",
    "postcode": "BN43 6TA",
    "address": "Upper Shoreham Road SUSSEX BN43 6TA",
    "coordinates": "50.8414631, -0.2509148",
    "lat": 50.8414631,
    "lng": -0.2509148
  },
  {
    "name": "Saltdean Tavern",
    "road": "Saltdean Park Road",
    "location": "BRIGHTON",
    "postcode": "BN2 8SP",
    "address": "Saltdean Park Road BRIGHTON BN2 8SP",
    "coordinates": "50.8017289, -0.0415138",
    "lat": 50.8017289,
    "lng": -0.0415138
  },
  {
    "name": "Sandbrook, Crown Carvery",
    "road": "Sandbrook Way",
    "location": "ROCHDALE",
    "postcode": "OL11 1RY",
    "address": "Sandbrook Way ROCHDALE OL11 1RY",
    "coordinates": "53.6019632, -2.1628061",
    "lat": 53.6019632,
    "lng": -2.1628061
  },
  {
    "name": "Scalby Manor",
    "road": "Burniston Road",
    "location": "SCARBOROUGH",
    "postcode": "YO13 0DA",
    "address": "Burniston Road SCARBOROUGH YO13 0DA",
    "coordinates": "54.3079764, -0.4264301",
    "lat": 54.3079764,
    "lng": -0.4264301
  },
  {
    "name": "Sheldon Hall",
    "road": "Gressel Lane",
    "location": "BIRMINGHAM",
    "postcode": "B33 9US",
    "address": "Gressel Lane BIRMINGHAM B33 9US",
    "coordinates": "52.4839319, -1.7623689",
    "lat": 52.4839319,
    "lng": -1.7623689
  },
  {
    "name": "Shepherds",
    "road": "Stragglethorpe",
    "location": "NOTTINGHAM",
    "postcode": "NG12 2JZ",
    "address": "Stragglethorpe NOTTINGHAM NG12 2JZ",
    "coordinates": "52.9326887, -1.0533189",
    "lat": 52.9326887,
    "lng": -1.0533189
  },
  {
    "name": "Sloop Inn",
    "road": "Mill Square",
    "location": "RYDE",
    "postcode": "PO33 4HS",
    "address": "Mill Square RYDE PO33 4HS",
    "coordinates": "50.7252137, -1.2266804",
    "lat": 50.7252137,
    "lng": -1.2266804
  },
  {
    "name": "Sportsman",
    "road": "Withdean Stadium, Tongdean Lane",
    "location": "BRIGHTON",
    "postcode": "BN1 5JD",
    "address": "Withdean Stadium, Tongdean Lane BRIGHTON BN1 5JD",
    "coordinates": "50.8527297, -0.1603724",
    "lat": 50.8527297,
    "lng": -0.1603724
  },
  {
    "name": "Swan",
    "road": "High Street",
    "location": "BIRMINGHAM",
    "postcode": "B46 3BL",
    "address": "High Street BIRMINGHAM B46 3BL",
    "coordinates": "52.4983473, -1.7064041",
    "lat": 52.4983473,
    "lng": -1.7064041
  },
  {
    "name": "The Fulling Mill (Previously Lord Tonypandy)",
    "road": "Mr Speakers Way",
    "location": "TONYPANDY",
    "postcode": "CF40 2PS",
    "address": "Mr Speakers Way TONYPANDY CF40 2PS",
    "coordinates": "51.6174785, -3.444594",
    "lat": 51.6174785,
    "lng": -3.444594
  },
  {
    "name": "Toby Carvery - Aigburth",
    "road": "531 Aigburth Road",
    "location": "LIVERPOOL",
    "postcode": "L19 9DN",
    "address": "531 Aigburth Road LIVERPOOL L19 9DN",
    "coordinates": "53.3633744, -2.9152767",
    "lat": 53.3633744,
    "lng": -2.9152767
  },
  {
    "name": "Toby Carvery - Ainsworth Arms",
    "road": "465 Bury & Bolton Road",
    "location": "MANCHESTER",
    "postcode": "M26 4LJ",
    "address": "465 Bury & Bolton Road MANCHESTER M26 4LJ",
    "coordinates": "53.5814543, -2.3432679",
    "lat": 53.5814543,
    "lng": -2.3432679
  },
  {
    "name": "Toby Carvery - Aintree",
    "road": "Grand National Avenue",
    "location": "LIVERPOOL",
    "postcode": "L9 5BD",
    "address": "Grand National Avenue LIVERPOOL L9 5BD",
    "coordinates": "53.4755089, -2.9538915",
    "lat": 53.4755089,
    "lng": -2.9538915
  },
  {
    "name": "Toby Carvery - Aldenham",
    "road": "Hartspring Lane",
    "location": "WATFORD",
    "postcode": "WD25 8AD",
    "address": "Hartspring Lane WATFORD WD25 8AD",
    "coordinates": "51.6661906, -0.362154",
    "lat": 51.6661906,
    "lng": -0.362154
  },
  {
    "name": "Toby Carvery - Almondsbury",
    "road": "Woodlands Lane",
    "location": "BRISTOL",
    "postcode": "BS32 4QB",
    "address": "Woodlands Lane BRISTOL BS32 4QB",
    "coordinates": "51.5465126, -2.5589261",
    "lat": 51.5465126,
    "lng": -2.5589261
  },
  {
    "name": "Toby Carvery - Amesbury",
    "road": "Solstice Retail Park",
    "location": "SALISBURY",
    "postcode": "SP4 7SQ",
    "address": "Solstice Retail Park SALISBURY SP4 7SQ",
    "coordinates": "51.0630635, -1.7811657",
    "lat": 51.0630635,
    "lng": -1.7811657
  },
  {
    "name": "Toby Carvery - Arrowe Park",
    "road": "Arrowe Park Road",
    "location": "WIRRAL",
    "postcode": "CH49 5LW",
    "address": "Arrowe Park Road WIRRAL CH49 5LW",
    "coordinates": "53.3645093, -3.0895085",
    "lat": 53.3645093,
    "lng": -3.0895085
  },
  {
    "name": "Toby Carvery - Artichoke",
    "road": "Ingrave Road",
    "location": "BRENTWOOD",
    "postcode": "CM15 8DZ",
    "address": "Ingrave Road BRENTWOOD CM15 8DZ",
    "coordinates": "51.6186276, 0.3084391",
    "lat": 51.6186276,
    "lng": 0.3084391
  },
  {
    "name": "Toby Carvery - Badgers Mount",
    "road": "London Road",
    "location": "SEVENOAKS",
    "postcode": "TN14 7AD",
    "address": "London Road SEVENOAKS TN14 7AD",
    "coordinates": "51.3298821, 0.1504451",
    "lat": 51.3298821,
    "lng": 0.1504451
  },
  {
    "name": "Toby Carvery - Barnes Park",
    "road": "Durham Road",
    "location": "SUNDERLAND",
    "postcode": "SR2 7RB",
    "address": "Durham Road SUNDERLAND SR2 7RB",
    "coordinates": "54.8934538, -1.4019429",
    "lat": 54.8934538,
    "lng": -1.4019429
  },
  {
    "name": "Toby Carvery - Basildon",
    "road": "Unit 5 Festival Leisure Park",
    "location": "BASILDON",
    "postcode": "SS14 3WB",
    "address": "Unit 5 Festival Leisure Park BASILDON SS14 3WB",
    "coordinates": "51.585, 0.4625",
    "lat": 51.585,
    "lng": 0.4625
  },
  {
    "name": "Toby Carvery - Bathgate Farm",
    "road": "Starlaw Road",
    "location": "Wesst Lothian",
    "postcode": "EH48 1LL",
    "address": "Starlaw Road Wesst Lothian EH48 1LL",
    "coordinates": "55.8962005, -3.6049158",
    "lat": 55.8962005,
    "lng": -3.6049158
  },
  {
    "name": "Toby Carvery - Bessacarr",
    "road": "Bawtry Road",
    "location": "SOUTH YORKSHIRE",
    "postcode": "DN4 7BS",
    "address": "Bawtry Road SOUTH YORKSHIRE DN4 7BS",
    "coordinates": "53.5031012, -1.0808644",
    "lat": 53.5031012,
    "lng": -1.0808644
  },
  {
    "name": "Toby Carvery - Bexley Heath",
    "road": "Crook Log",
    "location": "BEXLEY HEATH",
    "postcode": "DA6 8EQ",
    "address": "Crook Log BEXLEY HEATH DA6 8EQ",
    "coordinates": "51.4594379, 0.1258316",
    "lat": 51.4594379,
    "lng": 0.1258316
  },
  {
    "name": "Toby Carvery - Binley",
    "road": "Brinklow Road",
    "location": "COVENTRY",
    "postcode": "CV3 2DS",
    "address": "Brinklow Road COVENTRY CV3 2DS",
    "coordinates": "52.4040585, -1.4440802",
    "lat": 52.4040585,
    "lng": -1.4440802
  },
  {
    "name": "Toby Carvery - Bishopstoke",
    "road": "Fair Oak Road",
    "location": "EASTLEIGH",
    "postcode": "SO50 6LD",
    "address": "Fair Oak Road EASTLEIGH SO50 6LD",
    "coordinates": "50.9688984, -1.3349945",
    "lat": 50.9688984,
    "lng": -1.3349945
  },
  {
    "name": "Toby Carvery - Blackpool",
    "road": "Preston New Road",
    "location": "LANCASHIRE",
    "postcode": "FY4 4UT",
    "address": "Preston New Road LANCASHIRE FY4 4UT",
    "coordinates": "53.7946207, -2.9861175",
    "lat": 53.7946207,
    "lng": -2.9861175
  },
  {
    "name": "Toby Carvery - Bolton",
    "road": "Crompton Way",
    "location": "LANCASHIRE",
    "postcode": "BL1 8TJ",
    "address": "Crompton Way LANCASHIRE BL1 8TJ",
    "coordinates": "53.5991961, -2.4261613",
    "lat": 53.5991961,
    "lng": -2.4261613
  },
  {
    "name": "Toby Carvery - Bradford",
    "road": "244-246 Rooley Lane",
    "location": "BRADFORD",
    "postcode": "BD5 8LB",
    "address": "244-246 Rooley Lane BRADFORD BD5 8LB",
    "coordinates": "53.7687209, -1.7376907",
    "lat": 53.7687209,
    "lng": -1.7376907
  },
  {
    "name": "Toby Carvery - Braintree",
    "road": "Notley Cross",
    "location": "BRAINTREE",
    "postcode": "CM77 7AJ",
    "address": "Notley Cross BRAINTREE CM77 7AJ",
    "coordinates": "51.8679044, 0.5389069",
    "lat": 51.8679044,
    "lng": 0.5389069
  },
  {
    "name": "Toby Carvery - Bridgend",
    "road": "Ewenny Road",
    "location": "BRIDGEND",
    "postcode": "CF31 3UL",
    "address": "Ewenny Road BRIDGEND CF31 3UL",
    "coordinates": "51.4934805, -3.577464",
    "lat": 51.4934805,
    "lng": -3.577464
  },
  {
    "name": "Toby Carvery - Brockworth",
    "road": "Shurdington Road",
    "location": "GLOUCESTER",
    "postcode": "GL3 4PH",
    "address": "Shurdington Road GLOUCESTER GL3 4PH",
    "coordinates": "51.8439752, -2.1468795",
    "lat": 51.8439752,
    "lng": -2.1468795
  },
  {
    "name": "Toby Carvery - Buckhurst Hill",
    "road": "High Road",
    "location": "BUCKHURST HILL",
    "postcode": "IG9 5HT",
    "address": "High Road BUCKHURST HILL IG9 5HT",
    "coordinates": "51.6248764, 0.0314109",
    "lat": 51.6248764,
    "lng": 0.0314109
  },
  {
    "name": "Toby Carvery - Burnt Tree Island",
    "road": "Burnt Tree",
    "location": "TIPTON",
    "postcode": "DY4 7UF",
    "address": "Burnt Tree TIPTON DY4 7UF",
    "coordinates": "52.5149312, -2.0620023",
    "lat": 52.5149312,
    "lng": -2.0620023
  },
  {
    "name": "Toby Carvery - Burton",
    "road": "Centrum East",
    "location": "BURTON ON TRENT",
    "postcode": "DE14 2WN",
    "address": "Centrum East BURTON ON TRENT DE14 2WN",
    "coordinates": "52.7912087, -1.6702149",
    "lat": 52.7912087,
    "lng": -1.6702149
  },
  {
    "name": "Toby Carvery - Caerphilly",
    "road": "Corbett Lane",
    "location": "CAERPHILLY",
    "postcode": "CF83 3HX",
    "address": "Corbett Lane CAERPHILLY CF83 3HX",
    "coordinates": "51.5932497, -3.224059",
    "lat": 51.5932497,
    "lng": -3.224059
  },
  {
    "name": "Toby Carvery - Captain Manby",
    "road": "Sidegate Road, Beacon Park",
    "location": "NORFOLK",
    "postcode": "NR31 7RW",
    "address": "Sidegate Road, Beacon Park NORFOLK NR31 7RW",
    "coordinates": "36.8507689, -76.28587259999999",
    "lat": 36.8507689,
    "lng": -76.2858726
  },
  {
    "name": "Toby Carvery - Cardiff Gate",
    "road": "Greenwood Close Cardiff Gate Business Park",
    "location": "CARDIFF",
    "postcode": "CF23 8RD",
    "address": "Greenwood Close Cardiff Gate Business Park CARDIFF CF23 8RD",
    "coordinates": "51.538529, -3.1326822",
    "lat": 51.538529,
    "lng": -3.1326822
  },
  {
    "name": "Toby Carvery - Carlisle",
    "road": "Warwick Road",
    "location": "CUMBRIA",
    "postcode": "CA1 2SB",
    "address": "Warwick Road CUMBRIA CA1 2SB",
    "coordinates": "54.8945401, -2.9045921",
    "lat": 54.8945401,
    "lng": -2.9045921
  },
  {
    "name": "Toby Carvery - Carmarthen",
    "road": "Unit 6",
    "location": "CARMARTHEN",
    "postcode": "SA31 1GA",
    "address": "Unit 6 CARMARTHEN SA31 1GA",
    "coordinates": "51.85865219999999, -4.3089412",
    "lat": 51.8586522,
    "lng": -4.3089412
  },
  {
    "name": "Toby Carvery - Castle Bromwich",
    "road": "Chester Road",
    "location": "BIRMINGHAM",
    "postcode": "B36 0AG",
    "address": "Chester Road BIRMINGHAM B36 0AG",
    "coordinates": "52.5029801, -1.7742409",
    "lat": 52.5029801,
    "lng": -1.7742409
  },
  {
    "name": "Toby Carvery - Caversham Bridge",
    "road": "Richfield Avenue",
    "location": "READING",
    "postcode": "RG1 8EQ",
    "address": "Richfield Avenue READING RG1 8EQ",
    "coordinates": "51.4642702, -0.983953",
    "lat": 51.4642702,
    "lng": -0.983953
  },
  {
    "name": "Toby Carvery - Chadderton Park",
    "road": "Burnley Lane",
    "location": "OLDHAM",
    "postcode": "OL1 2QS",
    "address": "Burnley Lane OLDHAM OL1 2QS",
    "coordinates": "53.5555685, -2.1442396",
    "lat": 53.5555685,
    "lng": -2.1442396
  },
  {
    "name": "Toby Carvery - Chaddesden",
    "road": "Nottingham Road",
    "location": "DERBY",
    "postcode": "DE21 6LZ",
    "address": "Nottingham Road DERBY DE21 6LZ",
    "coordinates": "52.9234124, -1.4368681",
    "lat": 52.9234124,
    "lng": -1.4368681
  },
  {
    "name": "Toby Carvery - Chapel Allerton",
    "road": "201 Harrogate Road",
    "location": "LEEDS",
    "postcode": "LS7 3PT",
    "address": "201 Harrogate Road LEEDS LS7 3PT",
    "coordinates": "53.8337809, -1.5395012",
    "lat": 53.8337809,
    "lng": -1.5395012
  },
  {
    "name": "Toby Carvery - Chelmer Tavern",
    "road": "Dukes Lane",
    "location": "CHELMSFORD",
    "postcode": "CM2 6AD",
    "address": "Dukes Lane CHELMSFORD CM2 6AD",
    "coordinates": "51.740806, 0.4991983",
    "lat": 51.740806,
    "lng": 0.4991983
  },
  {
    "name": "Toby Carvery - Clacton on Sea",
    "road": "Marine Parade West, Martello Bay",
    "location": "ESSEX",
    "postcode": "CO15 1NW",
    "address": "Marine Parade West, Martello Bay ESSEX CO15 1NW",
    "coordinates": "51.7824959, 1.1437216",
    "lat": 51.7824959,
    "lng": 1.1437216
  },
  {
    "name": "Toby Carvery - Cleadon Village",
    "road": "Front Street",
    "location": "SUNDERLAND",
    "postcode": "SR6 7PG",
    "address": "Front Street SUNDERLAND SR6 7PG",
    "coordinates": "54.954409, -1.4017535",
    "lat": 54.954409,
    "lng": -1.4017535
  },
  {
    "name": "Toby Carvery - Cocket Hat",
    "road": "North Anderson Drive",
    "location": "ABERDEEN",
    "postcode": "AB15 6DW",
    "address": "North Anderson Drive ABERDEEN AB15 6DW",
    "coordinates": "57.1502773, -2.1492543",
    "lat": 57.1502773,
    "lng": -2.1492543
  },
  {
    "name": "Toby Carvery - Cockleshell",
    "road": "Heol Y Mynydd",
    "location": "SWANSEA",
    "postcode": "SA4 4DJ",
    "address": "Heol Y Mynydd SWANSEA SA4 4DJ",
    "coordinates": "51.6687309, -4.0338867",
    "lat": 51.6687309,
    "lng": -4.0338867
  },
  {
    "name": "Toby Carvery - Coldra",
    "road": "Chepstow Road",
    "location": "NEWPORT",
    "postcode": "NP19 9FL",
    "address": "Chepstow Road NEWPORT NP19 9FL",
    "coordinates": "51.5881606, -2.9631251",
    "lat": 51.5881606,
    "lng": -2.9631251
  },
  {
    "name": "Toby Carvery - Colwick Park",
    "road": "Daleside Road Easst",
    "location": "NOTTINGHAM",
    "postcode": "NG2 4BP",
    "address": "Daleside Road Easst NOTTINGHAM NG2 4BP",
    "coordinates": "52.9549691, -1.0954681",
    "lat": 52.9549691,
    "lng": -1.0954681
  },
  {
    "name": "Toby Carvery - Cooper Dean",
    "road": "Castle Lane East",
    "location": "BOURNEMOUTH",
    "postcode": "BH7 7DP",
    "address": "Castle Lane East BOURNEMOUTH BH7 7DP",
    "coordinates": "50.746006, -1.8235403",
    "lat": 50.746006,
    "lng": -1.8235403
  },
  {
    "name": "Toby Carvery - Crown",
    "road": "155 Bromley Common",
    "location": "BROMLEY",
    "postcode": "BR2 9RJ",
    "address": "155 Bromley Common BROMLEY BR2 9RJ",
    "coordinates": "51.3892475, 0.0357952",
    "lat": 51.3892475,
    "lng": 0.0357952
  },
  {
    "name": "Toby Carvery - Darlington",
    "road": "Yarm Road",
    "location": "DARLINGTON",
    "postcode": "DL1 4WF",
    "address": "Yarm Road DARLINGTON DL1 4WF",
    "coordinates": "54.5196551, -1.511514",
    "lat": 54.5196551,
    "lng": -1.511514
  },
  {
    "name": "Toby Carvery - Dodworth Valley",
    "road": "Castle View",
    "location": "BARNSLEY",
    "postcode": "S75 3LF",
    "address": "Castle View BARNSLEY S75 3LF",
    "coordinates": "53.5481651, -1.518615",
    "lat": 53.5481651,
    "lng": -1.518615
  },
  {
    "name": "Toby Carvery - Downlands",
    "road": "Upper Brighton Road",
    "location": "WORTHING",
    "postcode": "BN14 9JN",
    "address": "Upper Brighton Road WORTHING BN14 9JN",
    "coordinates": "50.8340855, -0.3683989",
    "lat": 50.8340855,
    "lng": -0.3683989
  },
  {
    "name": "Toby Carvery - Dronfield",
    "road": "Sheffield Road",
    "location": "SHEFFIELD",
    "postcode": "S18 2GA",
    "address": "Sheffield Road SHEFFIELD S18 2GA",
    "coordinates": "53.3155342, -1.4751537",
    "lat": 53.3155342,
    "lng": -1.4751537
  },
  {
    "name": "Toby Carvery - East Hunsbury",
    "road": "London Road",
    "location": "NORTHAMPTON",
    "postcode": "NN4 0TG",
    "address": "London Road NORTHAMPTON NN4 0TG",
    "coordinates": "52.200226, -0.8924632",
    "lat": 52.200226,
    "lng": -0.8924632
  },
  {
    "name": "Toby Carvery - Eden Park",
    "road": "Upper Elmers End Road",
    "location": "BECKENHAM",
    "postcode": "BR3 3HQ",
    "address": "Upper Elmers End Road BECKENHAM BR3 3HQ",
    "coordinates": "51.3899744, -0.026808",
    "lat": 51.3899744,
    "lng": -0.026808
  },
  {
    "name": "Toby Carvery - Edenthorpe",
    "road": "Lyndale Avenue",
    "location": "DONCASTER",
    "postcode": "DN3 2QT",
    "address": "Lyndale Avenue DONCASTER DN3 2QT",
    "coordinates": "53.5478576, -1.0748338",
    "lat": 53.5478576,
    "lng": -1.0748338
  },
  {
    "name": "Toby Carvery - Edinburgh West",
    "road": "St Johns Rd",
    "location": "EDINBURGH",
    "postcode": "EH12 8AX",
    "address": "St Johns Rd EDINBURGH EH12 8AX",
    "coordinates": "55.9429393, -3.2846954",
    "lat": 55.9429393,
    "lng": -3.2846954
  },
  {
    "name": "Toby Carvery - Endon",
    "road": "Leek Road",
    "location": "STOKE-ON-TRENT",
    "postcode": "ST9 9BE",
    "address": "Leek Road STOKE-ON-TRENT ST9 9BE",
    "coordinates": "53.0791505, -2.107075",
    "lat": 53.0791505,
    "lng": -2.107075
  },
  {
    "name": "Toby Carvery - Enfield",
    "road": "801 Gt Cambridge Road",
    "location": "ENFIELD",
    "postcode": "EN1 3PN",
    "address": "801 Gt Cambridge Road ENFIELD EN1 3PN",
    "coordinates": "51.644842, -0.06049649999999999",
    "lat": 51.644842,
    "lng": -0.0604965
  },
  {
    "name": "Toby Carvery - Ewell",
    "road": "Cheam Road",
    "location": "EPSOM",
    "postcode": "KT17 1QZ",
    "address": "Cheam Road EPSOM KT17 1QZ",
    "coordinates": "51.346123, -0.2409205",
    "lat": 51.346123,
    "lng": -0.2409205
  },
  {
    "name": "Toby Carvery - Exeter",
    "road": "Rydon Lane",
    "location": "EXETER",
    "postcode": "EX2 7HL",
    "address": "Rydon Lane EXETER EX2 7HL",
    "coordinates": "50.7179059, -3.4798331",
    "lat": 50.7179059,
    "lng": -3.4798331
  },
  {
    "name": "Toby Carvery - Festival Park",
    "road": "Marina Way",
    "location": "STOKE-ON-TRENT",
    "postcode": "ST1 5PA",
    "address": "Marina Way STOKE-ON-TRENT ST1 5PA",
    "coordinates": "53.0249106, -2.19573",
    "lat": 53.0249106,
    "lng": -2.19573
  },
  {
    "name": "Toby Carvery - Formby",
    "road": "13 Church Road",
    "location": "LIVERPOOL",
    "postcode": "L37 8BQ",
    "address": "13 Church Road LIVERPOOL L37 8BQ",
    "coordinates": "53.5560796, -3.0560178",
    "lat": 53.5560796,
    "lng": -3.0560178
  },
  {
    "name": "Toby Carvery - Friary",
    "road": "Elstree Way",
    "location": "SWINDON",
    "postcode": "SN25 4YX",
    "address": "Elstree Way SWINDON SN25 4YX",
    "coordinates": "51.598586, -1.7945992",
    "lat": 51.598586,
    "lng": -1.7945992
  },
  {
    "name": "Toby Carvery - Frimley",
    "road": "114 Portsmouth Road",
    "location": "CAMBERLEY",
    "postcode": "GU15 1HS",
    "address": "114 Portsmouth Road CAMBERLEY GU15 1HS",
    "coordinates": "51.325665, -0.7338321",
    "lat": 51.325665,
    "lng": -0.7338321
  },
  {
    "name": "Toby Carvery - Goldington",
    "road": "403 Goldington Road",
    "location": "BEDFORD",
    "postcode": "MK41 0DS",
    "address": "403 Goldington Road BEDFORD MK41 0DS",
    "coordinates": "52.1430853, -0.4265768",
    "lat": 52.1430853,
    "lng": -0.4265768
  },
  {
    "name": "Toby Carvery - Gravesend",
    "road": "Cold Harbour Road",
    "location": "GRAVESEND",
    "postcode": "DA11 8AB",
    "address": "Cold Harbour Road GRAVESEND DA11 8AB",
    "coordinates": "51.4198438, 0.35694",
    "lat": 51.4198438,
    "lng": 0.35694
  },
  {
    "name": "Toby Carvery - Halfway House (Thorpe Bay)",
    "road": "213 Eastern Esplanade",
    "location": "ESSEX",
    "postcode": "SS1 3AD",
    "address": "213 Eastern Esplanade ESSEX SS1 3AD",
    "coordinates": "51.5306063, 0.7446659999999999",
    "lat": 51.5306063,
    "lng": 0.744666
  },
  {
    "name": "Toby Carvery - Hall Green",
    "road": "1456 Stratford Road",
    "location": "BIRMINGHAM",
    "postcode": "B28 9ES",
    "address": "1456 Stratford Road BIRMINGHAM B28 9ES",
    "coordinates": "52.4233955, -1.8373755",
    "lat": 52.4233955,
    "lng": -1.8373755
  },
  {
    "name": "Toby Carvery - Harlow",
    "road": "Edinburgh Gate",
    "location": "ESSEX",
    "postcode": "CM20 2LQ",
    "address": "Edinburgh Gate ESSEX CM20 2LQ",
    "coordinates": "51.7809997, 0.0981462",
    "lat": 51.7809997,
    "lng": 0.0981462
  },
  {
    "name": "Toby Carvery - Hemel Hempstead",
    "road": "Maylands Avenue",
    "location": "HERTFORDSHIRE",
    "postcode": "HP2 4SQ",
    "address": "Maylands Avenue HERTFORDSHIRE HP2 4SQ",
    "coordinates": "51.7602538, -0.4386358",
    "lat": 51.7602538,
    "lng": -0.4386358
  },
  {
    "name": "Toby Carvery - Highnam",
    "road": "Over",
    "location": "GLOUCESTER",
    "postcode": "GL2 8DE",
    "address": "Over GLOUCESTER GL2 8DE",
    "coordinates": "51.8742269, -2.2736824",
    "lat": 51.8742269,
    "lng": -2.2736824
  },
  {
    "name": "Toby Carvery - Hilsea",
    "road": "Copnor Road",
    "location": "PORTSMOUTH",
    "postcode": "PO3 5HS",
    "address": "Copnor Road PORTSMOUTH PO3 5HS",
    "coordinates": "50.8298084, -1.0664862",
    "lat": 50.8298084,
    "lng": -1.0664862
  },
  {
    "name": "Toby Carvery - Hinton",
    "road": "Lyndhurst Road",
    "location": "CHRISTCHURCH",
    "postcode": "BH23 4SD",
    "address": "Lyndhurst Road CHRISTCHURCH BH23 4SD",
    "coordinates": "50.7457465, -1.7369592",
    "lat": 50.7457465,
    "lng": -1.7369592
  },
  {
    "name": "Toby Carvery - Hoole Village",
    "road": "Warrington Road",
    "location": "CHESTER",
    "postcode": "CH2 4EX",
    "address": "Warrington Road CHESTER CH2 4EX",
    "coordinates": "53.2128539, -2.8490459",
    "lat": 53.2128539,
    "lng": -2.8490459
  },
  {
    "name": "Toby Carvery - Hopgrove",
    "road": "Malton Road",
    "location": "YORK",
    "postcode": "YO32 9TE",
    "address": "Malton Road YORK YO32 9TE",
    "coordinates": "53.9824023, -1.0423002",
    "lat": 53.9824023,
    "lng": -1.0423002
  },
  {
    "name": "Toby Carvery - Horsforth",
    "road": "4 Fink Hill",
    "location": "LEEDS",
    "postcode": "LS18 4DH",
    "address": "4 Fink Hill LEEDS LS18 4DH",
    "coordinates": "53.83450939999999, -1.645203",
    "lat": 53.8345094,
    "lng": -1.645203
  },
  {
    "name": "Toby Carvery - Huddersfield",
    "road": "Brighouse Road",
    "location": "HUDDERSFIELD",
    "postcode": "HD2 2LB",
    "address": "Brighouse Road HUDDERSFIELD HD2 2LB",
    "coordinates": "53.6708176, -1.8242584",
    "lat": 53.6708176,
    "lng": -1.8242584
  },
  {
    "name": "Toby Carvery - Ipswich",
    "road": "3 Edith Cook Way",
    "location": "SUFFOLK",
    "postcode": "IP3 9GX",
    "address": "3 Edith Cook Way SUFFOLK IP3 9GX",
    "coordinates": "52.0293327, 1.2016896",
    "lat": 52.0293327,
    "lng": 1.2016896
  },
  {
    "name": "Toby Carvery - Keighley",
    "road": "Bradford Road",
    "location": "KEIGHLEY",
    "postcode": "BD21 4BB",
    "address": "Bradford Road KEIGHLEY BD21 4BB",
    "coordinates": "53.8724595, -1.8974101",
    "lat": 53.8724595,
    "lng": -1.8974101
  },
  {
    "name": "Toby Carvery - Kenton Bank",
    "road": "Ponteland Road",
    "location": "NEWCASTLE UPON TYNE",
    "postcode": "NE3 3TY",
    "address": "Ponteland Road NEWCASTLE UPON TYNE NE3 3TY",
    "coordinates": "55.0072749, -1.6698672",
    "lat": 55.0072749,
    "lng": -1.6698672
  },
  {
    "name": "Toby Carvery - Kings Norton",
    "road": "Pershore Road South",
    "location": "BIRMINGHAM",
    "postcode": "B30 3JX",
    "address": "Pershore Road South BIRMINGHAM B30 3JX",
    "coordinates": "52.4122807, -1.9303287",
    "lat": 52.4122807,
    "lng": -1.9303287
  },
  {
    "name": "Toby Carvery - Knowle",
    "road": "1635 Warwick Road",
    "location": "SOLIHULL",
    "postcode": "B93 9AH",
    "address": "1635 Warwick Road SOLIHULL B93 9AH",
    "coordinates": "52.39074249999999, -1.7369378",
    "lat": 52.3907425,
    "lng": -1.7369378
  },
  {
    "name": "Toby Carvery - Langley",
    "road": "399 London Road",
    "location": "SLOUGH",
    "postcode": "SL3 8PS",
    "address": "399 London Road SLOUGH SL3 8PS",
    "coordinates": "51.4941488, -0.547262",
    "lat": 51.4941488,
    "lng": -0.547262
  },
  {
    "name": "Toby Carvery - Langley Green",
    "road": "Vancouver Drive",
    "location": "CRAWLEY",
    "postcode": "RH11 7UR",
    "address": "Vancouver Drive CRAWLEY RH11 7UR",
    "coordinates": "51.1286602, -0.1892496",
    "lat": 51.1286602,
    "lng": -0.1892496
  },
  {
    "name": "Toby Carvery - Lauriston Farm",
    "road": "69 Lauriston Farm Road",
    "location": "Edinburgh",
    "postcode": "EH4 5EX",
    "address": "69 Lauriston Farm Road Edinburgh EH4 5EX",
    "coordinates": "55.9712681, -3.2747623",
    "lat": 55.9712681,
    "lng": -3.2747623
  },
  {
    "name": "Toby Carvery - Liberton",
    "road": "41 Howden Hall Road",
    "location": "EDINBURGH",
    "postcode": "EH16 6PG",
    "address": "41 Howden Hall Road EDINBURGH EH16 6PG",
    "coordinates": "55.903256, -3.1646397",
    "lat": 55.903256,
    "lng": -3.1646397
  },
  {
    "name": "Toby Carvery - Lincoln",
    "road": "11 St Marks Square",
    "location": "LINCOLN",
    "postcode": "LN5 7BD",
    "address": "11 St Marks Square LINCOLN LN5 7BD",
    "coordinates": "53.2257713, -0.5447183",
    "lat": 53.2257713,
    "lng": -0.5447183
  },
  {
    "name": "Toby Carvery - Loughborough",
    "road": "Forest Road",
    "location": "LOUGHBOROUGH",
    "postcode": "LE11 3HU",
    "address": "Forest Road LOUGHBOROUGH LE11 3HU",
    "coordinates": "52.7631815, -1.2216364",
    "lat": 52.7631815,
    "lng": -1.2216364
  },
  {
    "name": "Toby Carvery - Lower Earley",
    "road": "Unit 2 The Square Chalfont Way",
    "location": "READING",
    "postcode": "RG6 5HJ",
    "address": "Unit 2 The Square Chalfont Way READING RG6 5HJ",
    "coordinates": "51.4234546, -0.9342277",
    "lat": 51.4234546,
    "lng": -0.9342277
  },
  {
    "name": "Toby Carvery - Lympstone",
    "road": "Exmouth Road",
    "location": "EXETER",
    "postcode": "EX8 5AJ",
    "address": "Exmouth Road EXETER EX8 5AJ",
    "coordinates": "50.662029, -3.4285765",
    "lat": 50.662029,
    "lng": -3.4285765
  },
  {
    "name": "Toby Carvery - Macclesfield",
    "road": "London Road",
    "location": "MACCLESFIELD",
    "postcode": "SK10 4NA",
    "address": "London Road MACCLESFIELD SK10 4NA",
    "coordinates": "53.2432527, -2.1258994",
    "lat": 53.2432527,
    "lng": -2.1258994
  },
  {
    "name": "Toby Carvery - Maes Knoll",
    "road": "Bristol Road",
    "location": "BRISTOL",
    "postcode": "BS14 0PF",
    "address": "Bristol Road BRISTOL BS14 0PF",
    "coordinates": "51.4091753, -2.5586764",
    "lat": 51.4091753,
    "lng": -2.5586764
  },
  {
    "name": "Toby Carvery - Maidstone",
    "road": "Langley Park Centre, Laight Road",
    "location": "KENT",
    "postcode": "ME17 3FU",
    "address": "Langley Park Centre, Laight Road KENT ME17 3FU",
    "coordinates": "51.2399105, 0.5691767999999999",
    "lat": 51.2399105,
    "lng": 0.5691768
  },
  {
    "name": "Toby Carvery - Marton",
    "road": "Marton Road",
    "location": "MIDDLESBROUGH",
    "postcode": "TS4 3BS",
    "address": "Marton Road MIDDLESBROUGH TS4 3BS",
    "coordinates": "54.5527099, -1.219284",
    "lat": 54.5527099,
    "lng": -1.219284
  },
  {
    "name": "Toby Carvery - Metro Centre",
    "road": "Metro Centre Retail Park",
    "location": "TYNE & WEAR",
    "postcode": "NE11 9ZG",
    "address": "Metro Centre Retail Park TYNE & WEAR NE11 9ZG",
    "coordinates": "54.9583647, -1.6703353",
    "lat": 54.9583647,
    "lng": -1.6703353
  },
  {
    "name": "Toby Carvery - Moby Dick (Chadwell Heath)",
    "road": "Whalebone Lane North",
    "location": "ROMFORD",
    "postcode": "RM6 6QU",
    "address": "Whalebone Lane North ROMFORD RM6 6QU",
    "coordinates": "51.5805667, 0.1411225",
    "lat": 51.5805667,
    "lng": 0.1411225
  },
  {
    "name": "Toby Carvery - Morecambe",
    "road": "Lancaster Road",
    "location": "MORECAMBE",
    "postcode": "LA4 5TP",
    "address": "Lancaster Road MORECAMBE LA4 5TP",
    "coordinates": "54.0669116, -2.840151",
    "lat": 54.0669116,
    "lng": -2.840151
  },
  {
    "name": "Toby Carvery - Morley",
    "road": "Bruntcliffe Road",
    "location": "LEEDS",
    "postcode": "LS27 0LY",
    "address": "Bruntcliffe Road LEEDS LS27 0LY",
    "coordinates": "53.7406904, -1.6188078",
    "lat": 53.7406904,
    "lng": -1.6188078
  },
  {
    "name": "Toby Carvery - Newbury",
    "road": "110 London Road",
    "location": "BERKSHIRE",
    "postcode": "RG14 2AJ",
    "address": "110 London Road BERKSHIRE RG14 2AJ",
    "coordinates": "51.40665130000001, -1.3161353",
    "lat": 51.4066513,
    "lng": -1.3161353
  },
  {
    "name": "Toby Carvery - Newton Abbot",
    "road": "Torquay Road",
    "location": "NEWTON ABBOT",
    "postcode": "TQ12 4AQ",
    "address": "Torquay Road NEWTON ABBOT TQ12 4AQ",
    "coordinates": "50.5253219, -3.5952581",
    "lat": 50.5253219,
    "lng": -3.5952581
  },
  {
    "name": "Toby Carvery - Northbourne",
    "road": "Wimborne Road",
    "location": "BOURNEMOUTH",
    "postcode": "BH10 7BJ",
    "address": "Wimborne Road BOURNEMOUTH BH10 7BJ",
    "coordinates": "50.767647, -1.8853942",
    "lat": 50.767647,
    "lng": -1.8853942
  },
  {
    "name": "Toby Carvery - Norton Canes",
    "road": "Watling Street",
    "location": "CANNOCK",
    "postcode": "WS11 9ND",
    "address": "Watling Street CANNOCK WS11 9ND",
    "coordinates": "52.6626675, -1.9827764",
    "lat": 52.6626675,
    "lng": -1.9827764
  },
  {
    "name": "Toby Carvery - Oaklands Toby Carvery",
    "road": "Studio Way",
    "location": "BOREHAMWOOD",
    "postcode": "WD6 5JY",
    "address": "Studio Way BOREHAMWOOD WD6 5JY",
    "coordinates": "51.6624854, -0.261366",
    "lat": 51.6624854,
    "lng": -0.261366
  },
  {
    "name": "Toby Carvery - Old Forge",
    "road": "London Road",
    "location": "STEVENAGE",
    "postcode": "SG2 8DT",
    "address": "London Road STEVENAGE SG2 8DT",
    "coordinates": "51.8840799, -0.1915564",
    "lat": 51.8840799,
    "lng": -0.1915564
  },
  {
    "name": "Toby Carvery - Old Windsor",
    "road": "14 Straight Road",
    "location": "WINDSOR",
    "postcode": "SL4 2RR",
    "address": "14 Straight Road WINDSOR SL4 2RR",
    "coordinates": "51.4627025, -0.5849603999999999",
    "lat": 51.4627025,
    "lng": -0.5849604
  },
  {
    "name": "Toby Carvery - Ormskirk",
    "road": "County Road",
    "location": "ORMSKIRK",
    "postcode": "L39 1NN",
    "address": "County Road ORMSKIRK L39 1NN",
    "coordinates": "53.5738704, -2.8880729",
    "lat": 53.5738704,
    "lng": -2.8880729
  },
  {
    "name": "Toby Carvery - Oulton",
    "road": "2 Aberford Road",
    "location": "LEEDS",
    "postcode": "LS26 8EJ",
    "address": "2 Aberford Road LEEDS LS26 8EJ",
    "coordinates": "53.745594, -1.4514082",
    "lat": 53.745594,
    "lng": -1.4514082
  },
  {
    "name": "Toby Carvery - Park Place",
    "road": "54 Commonside West",
    "location": "MITCHAM",
    "postcode": "CR4 4HB",
    "address": "54 Commonside West MITCHAM CR4 4HB",
    "coordinates": "51.4004291, -0.1610658",
    "lat": 51.4004291,
    "lng": -0.1610658
  },
  {
    "name": "Toby Carvery - Peterborough",
    "road": "Ashbourne Road",
    "location": "Peterborough",
    "postcode": "PE7 8BT",
    "address": "Ashbourne Road Peterborough PE7 8BT",
    "coordinates": "52.539783, -0.2565571",
    "lat": 52.539783,
    "lng": -0.2565571
  },
  {
    "name": "Toby Carvery - Poole",
    "road": "Wimborne Road",
    "location": "POOLE",
    "postcode": "BH15 3EH",
    "address": "Wimborne Road POOLE BH15 3EH",
    "coordinates": "50.7379178, -1.9858518",
    "lat": 50.7379178,
    "lng": -1.9858518
  },
  {
    "name": "Toby Carvery - Quinton",
    "road": "563 Hagley Road West",
    "location": "BIRMINGHAM",
    "postcode": "B32 1HP",
    "address": "563 Hagley Road West BIRMINGHAM B32 1HP",
    "coordinates": "52.4629304, -1.9963536",
    "lat": 52.4629304,
    "lng": -1.9963536
  },
  {
    "name": "Toby Carvery - Redhill",
    "road": "Redstone Hill",
    "location": "SURREY",
    "postcode": "RH1 4BL",
    "address": "Redstone Hill SURREY RH1 4BL",
    "coordinates": "51.2379543, -0.1645337",
    "lat": 51.2379543,
    "lng": -0.1645337
  },
  {
    "name": "Toby Carvery - Rhoose",
    "road": "Port Road West",
    "location": "SOUTH GLAMORGAN",
    "postcode": "CF62 3BA",
    "address": "Port Road West SOUTH GLAMORGAN CF62 3BA",
    "coordinates": "51.4084311, -3.3032441",
    "lat": 51.4084311,
    "lng": -3.3032441
  },
  {
    "name": "Toby Carvery - Roborough",
    "road": "399 Tavistock Road",
    "location": "PLYMOUTH",
    "postcode": "PL6 7HB",
    "address": "399 Tavistock Road PLYMOUTH PL6 7HB",
    "coordinates": "50.4282797, -4.1131081",
    "lat": 50.4282797,
    "lng": -4.1131081
  },
  {
    "name": "Toby Carvery - Romford",
    "road": "Waterloo Road",
    "location": "ESSEX",
    "postcode": "RM1 1AU",
    "address": "Waterloo Road ESSEX RM1 1AU",
    "coordinates": "51.5746759, 0.1784659",
    "lat": 51.5746759,
    "lng": 0.1784659
  },
  {
    "name": "Toby Carvery - Rotherham",
    "road": "Sycamore Road",
    "location": "ROTHERHAM",
    "postcode": "S65 1EN",
    "address": "Sycamore Road ROTHERHAM S65 1EN",
    "coordinates": "53.4417618, -1.3249535",
    "lat": 53.4417618,
    "lng": -1.3249535
  },
  {
    "name": "Toby Carvery - Runwell",
    "road": "Runwell Road",
    "location": "WICKFORD",
    "postcode": "SS11 7QJ",
    "address": "Runwell Road WICKFORD SS11 7QJ",
    "coordinates": "51.6263474, 0.5516595",
    "lat": 51.6263474,
    "lng": 0.5516595
  },
  {
    "name": "Toby Carvery - Salters Wharf",
    "road": "South Promenade",
    "location": "LYTAM ST ANNES",
    "postcode": "FY8 1LS",
    "address": "South Promenade LYTAM ST ANNES FY8 1LS",
    "coordinates": "53.7459164, -3.0281334",
    "lat": 53.7459164,
    "lng": -3.0281334
  },
  {
    "name": "Toby Carvery - Sheldon",
    "road": "2225 Coventry Road",
    "location": "BIRMINGHAM",
    "postcode": "B26 3EH",
    "address": "2225 Coventry Road BIRMINGHAM B26 3EH",
    "coordinates": "52.4514927, -1.7830894",
    "lat": 52.4514927,
    "lng": -1.7830894
  },
  {
    "name": "Toby Carvery - Shenstone",
    "road": "Birmingham Road",
    "location": "LICHFIELD",
    "postcode": "WS14 0PA",
    "address": "Birmingham Road LICHFIELD WS14 0PA",
    "coordinates": "52.6112843, -1.837745",
    "lat": 52.6112843,
    "lng": -1.837745
  },
  {
    "name": "Toby Carvery - Shiremoor",
    "road": "Northumberland Park Way",
    "location": "NEWCASTLE UPON TYNE",
    "postcode": "NE27 0FG",
    "address": "Northumberland Park Way NEWCASTLE UPON TYNE NE27 0FG",
    "coordinates": "55.0330944, -1.5198472",
    "lat": 55.0330944,
    "lng": -1.5198472
  },
  {
    "name": "Toby Carvery - Snaresbrook",
    "road": "73 Hollybush Hill",
    "location": "LONDON",
    "postcode": "E11 1PE",
    "address": "73 Hollybush Hill LONDON E11 1PE",
    "coordinates": "51.5831285, 0.0207519",
    "lat": 51.5831285,
    "lng": 0.0207519
  },
  {
    "name": "Toby Carvery - South Croydon",
    "road": "415 Brighton Road",
    "location": "SOUTH CROYDON",
    "postcode": "CR2 6ES",
    "address": "415 Brighton Road SOUTH CROYDON CR2 6ES",
    "coordinates": "51.3493728, -0.0998795",
    "lat": 51.3493728,
    "lng": -0.0998795
  },
  {
    "name": "Toby Carvery - Southend (A127)",
    "road": "Prince Avenue",
    "location": "SOUTHEND-ON-SEA",
    "postcode": "SS2 6RL",
    "address": "Prince Avenue SOUTHEND-ON-SEA SS2 6RL",
    "coordinates": "51.5577504, 0.6983479",
    "lat": 51.5577504,
    "lng": 0.6983479
  },
  {
    "name": "Toby Carvery - Speke Boulevard",
    "road": "1 Longman Drive",
    "location": "LIVERPOOL",
    "postcode": "L24 1XZ",
    "address": "1 Longman Drive LIVERPOOL L24 1XZ",
    "coordinates": "53.3490048, -2.860738",
    "lat": 53.3490048,
    "lng": -2.860738
  },
  {
    "name": "Toby Carvery - Stafferton Lodge",
    "road": "Braywick Road",
    "location": "MAIDENHEAD",
    "postcode": "SL6 1BN",
    "address": "Braywick Road MAIDENHEAD SL6 1BN",
    "coordinates": "51.5127579, -0.7189195",
    "lat": 51.5127579,
    "lng": -0.7189195
  },
  {
    "name": "Toby Carvery - Stonebridge Island",
    "road": "Coventry Road",
    "location": "COVENTRY",
    "postcode": "CV7 7HL",
    "address": "Coventry Road COVENTRY CV7 7HL",
    "coordinates": "52.4457127, -1.6915433",
    "lat": 52.4457127,
    "lng": -1.6915433
  },
  {
    "name": "Toby Carvery - Stoneycroft",
    "road": "Queens Drive",
    "location": "LIVERPOOL",
    "postcode": "L13 0AS",
    "address": "Queens Drive LIVERPOOL L13 0AS",
    "coordinates": "53.4214538, -2.911483",
    "lat": 53.4214538,
    "lng": -2.911483
  },
  {
    "name": "Toby Carvery - Strathclyde Park",
    "road": "Hamilton Road",
    "location": "MOTHERWELL",
    "postcode": "ML1 3WB",
    "address": "Hamilton Road MOTHERWELL ML1 3WB",
    "coordinates": "55.7866532, -4.0050721",
    "lat": 55.7866532,
    "lng": -4.0050721
  },
  {
    "name": "Toby Carvery - Streetly",
    "road": "Chester Road North",
    "location": "SUTTON COLDFIELD",
    "postcode": "B73 6SP",
    "address": "Chester Road North SUTTON COLDFIELD B73 6SP",
    "coordinates": "52.5647659, -1.878248",
    "lat": 52.5647659,
    "lng": -1.878248
  },
  {
    "name": "Toby Carvery - Sutton Park",
    "road": "Sutton Park",
    "location": "SUTTON COLDFIELD",
    "postcode": "B74 2YT",
    "address": "Sutton Park SUTTON COLDFIELD B74 2YT",
    "coordinates": "52.5711204, -1.8568268",
    "lat": 52.5711204,
    "lng": -1.8568268
  },
  {
    "name": "Toby Carvery - Talke",
    "road": "Congleton Road",
    "location": "STOKE ON TRENT",
    "postcode": "ST7 1LW",
    "address": "Congleton Road STOKE ON TRENT ST7 1LW",
    "coordinates": "53.0834169, -2.2611698",
    "lat": 53.0834169,
    "lng": -2.2611698
  },
  {
    "name": "Toby Carvery - Telford",
    "road": "Shawbirch Cross Roads",
    "location": "TELFORD",
    "postcode": "TF1 3QA",
    "address": "Shawbirch Cross Roads TELFORD TF1 3QA",
    "coordinates": "52.717623, -2.5251538",
    "lat": 52.717623,
    "lng": -2.5251538
  },
  {
    "name": "Toby Carvery - Thanet",
    "road": "Eurokent Business Park",
    "location": "MARGATE",
    "postcode": "CT12 5AD",
    "address": "Eurokent Business Park MARGATE CT12 5AD",
    "coordinates": "51.3575153, 1.388798",
    "lat": 51.3575153,
    "lng": 1.388798
  },
  {
    "name": "Toby Carvery - Trentham Village",
    "road": "206 Longton Road",
    "location": "STOKE-ON-TRENT",
    "postcode": "ST4 8BU",
    "address": "206 Longton Road STOKE-ON-TRENT ST4 8BU",
    "coordinates": "52.9649435, -2.1810326",
    "lat": 52.9649435,
    "lng": -2.1810326
  },
  {
    "name": "Toby Carvery - Trowbridge",
    "road": "Unit 4 Cradle Bridge Retail Park",
    "location": "TROWBRIDGE",
    "postcode": "BA14 8FS",
    "address": "Unit 4 Cradle Bridge Retail Park TROWBRIDGE BA14 8FS",
    "coordinates": "51.3172212, -2.2058226",
    "lat": 51.3172212,
    "lng": -2.2058226
  },
  {
    "name": "Toby Carvery - Ugly Duckling",
    "road": "Oxford Road",
    "location": "UXBRIDGE",
    "postcode": "UB9 4LJ",
    "address": "Oxford Road UXBRIDGE UB9 4LJ",
    "coordinates": "51.5732786, -0.5276996",
    "lat": 51.5732786,
    "lng": -0.5276996
  },
  {
    "name": "Toby Carvery - Wakefield",
    "road": "Denby Dale Road",
    "location": "WAKEFIELD",
    "postcode": "WF2 7AW",
    "address": "Denby Dale Road WAKEFIELD WF2 7AW",
    "coordinates": "53.66317, -1.5081518",
    "lat": 53.66317,
    "lng": -1.5081518
  },
  {
    "name": "Toby Carvery - Walsall Broadway",
    "road": "Broadway North",
    "location": "WALSALL",
    "postcode": "WS1 2QA",
    "address": "Broadway North WALSALL WS1 2QA",
    "coordinates": "52.5810266, -1.9603629",
    "lat": 52.5810266,
    "lng": -1.9603629
  },
  {
    "name": "Toby Carvery - Warrington",
    "road": "Winwick Road",
    "location": "WARRINGTON",
    "postcode": "WA2 8DB",
    "address": "Winwick Road WARRINGTON WA2 8DB",
    "coordinates": "53.4080638, -2.595368",
    "lat": 53.4080638,
    "lng": -2.595368
  },
  {
    "name": "Toby Carvery - Washington",
    "road": "Emerson Road",
    "location": "TYNE & WEAR",
    "postcode": "NE37 1LE",
    "address": "Emerson Road TYNE & WEAR NE37 1LE",
    "coordinates": "54.8867508, -1.553427",
    "lat": 54.8867508,
    "lng": -1.553427
  },
  {
    "name": "Toby Carvery - Watergate Toll",
    "road": "421 Watergate Drive",
    "location": "BOLTON",
    "postcode": "BL5 1BU",
    "address": "421 Watergate Drive BOLTON BL5 1BU",
    "coordinates": "53.54401379999999, -2.4506786",
    "lat": 53.5440138,
    "lng": -2.4506786
  },
  {
    "name": "Toby Carvery - Watermill",
    "road": "Coxmoor Road",
    "location": "NOTTINGHAM",
    "postcode": "NG17 4NE",
    "address": "Coxmoor Road NOTTINGHAM NG17 4NE",
    "coordinates": "53.1275993, -1.2428697",
    "lat": 53.1275993,
    "lng": -1.2428697
  },
  {
    "name": "Toby Carvery - Waterside",
    "road": "Garswood Old Road/East Lancashire Road",
    "location": "LANCASHIRE",
    "postcode": "WA11 7LX",
    "address": "Garswood Old Road/East Lancashire Road LANCASHIRE WA11 7LX",
    "coordinates": "53.4731747, -2.7181438",
    "lat": 53.4731747,
    "lng": -2.7181438
  },
  {
    "name": "Toby Carvery - Whitchurch",
    "road": "21 Tyn-y-Parc Road",
    "location": "CARDIFF",
    "postcode": "CF14 6BG",
    "address": "21 Tyn-y-Parc Road CARDIFF CF14 6BG",
    "coordinates": "51.5175574, -3.2164015",
    "lat": 51.5175574,
    "lng": -3.2164015
  },
  {
    "name": "Toby Carvery - White Hart",
    "road": "342 London Road",
    "location": "COLCHESTER",
    "postcode": "CO3 8LT",
    "address": "342 London Road COLCHESTER CO3 8LT",
    "coordinates": "51.88448589999999, 0.8158938",
    "lat": 51.8844859,
    "lng": 0.8158938
  },
  {
    "name": "Toby Carvery - Whitewebbs House",
    "road": "Whitewebbs Lane",
    "location": "ENFIELD",
    "postcode": "EN2 9HH",
    "address": "Whitewebbs Lane ENFIELD EN2 9HH",
    "coordinates": "51.6814267, -0.068964",
    "lat": 51.6814267,
    "lng": -0.068964
  },
  {
    "name": "Toby Carvery - Widnes",
    "road": "Bowers Business Park",
    "location": "WIDNES",
    "postcode": "WA8 0TA",
    "address": "Bowers Business Park WIDNES WA8 0TA",
    "coordinates": "53.3642013, -2.7216755",
    "lat": 53.3642013,
    "lng": -2.7216755
  },
  {
    "name": "Toby Carvery - Willerby Village",
    "road": "Beverley Road",
    "location": "HULL",
    "postcode": "HU10 6NT",
    "address": "Beverley Road HULL HU10 6NT",
    "coordinates": "53.7781216, -0.3573658",
    "lat": 53.7781216,
    "lng": -0.3573658
  },
  {
    "name": "Toby Carvery - Willingdon Drove",
    "road": "Willingdon Drove",
    "location": "EASTBOURNE",
    "postcode": "BN23 8AL",
    "address": "Willingdon Drove EASTBOURNE BN23 8AL",
    "coordinates": "50.8008854, 0.2950403",
    "lat": 50.8008854,
    "lng": 0.2950403
  },
  {
    "name": "Toby Carvery - Wolviston",
    "road": "Coal Lane",
    "location": "BILLINGHAM",
    "postcode": "TS22 5PZ",
    "address": "Coal Lane BILLINGHAM TS22 5PZ",
    "coordinates": "54.6267622, -1.3038188",
    "lat": 54.6267622,
    "lng": -1.3038188
  },
  {
    "name": "Toby Carvery - Woodford Green",
    "road": "1 Southend Road",
    "location": "ESSEX",
    "postcode": "IG8 8LG",
    "address": "1 Southend Road ESSEX IG8 8LG",
    "coordinates": "51.5913871, 0.0474599",
    "lat": 51.5913871,
    "lng": 0.0474599
  },
  {
    "name": "Toby Carvery - Worcester",
    "road": "Bath Road",
    "location": "WORCESTER",
    "postcode": "WR5 3HW",
    "address": "Bath Road WORCESTER WR5 3HW",
    "coordinates": "52.1712116, -2.2128086",
    "lat": 52.1712116,
    "lng": -2.2128086
  },
  {
    "name": "Toby Carvery - Worcester Park",
    "road": "Old Malden Lane",
    "location": "SURREY",
    "postcode": "KT4 7PY",
    "address": "Old Malden Lane SURREY KT4 7PY",
    "coordinates": "51.3758763, -0.2633036",
    "lat": 51.3758763,
    "lng": -0.2633036
  },
  {
    "name": "Toby Carvery - Worthing",
    "road": "39 Goring Road",
    "location": "WORTHING",
    "postcode": "BN12 4AS",
    "address": "39 Goring Road WORTHING BN12 4AS",
    "coordinates": "50.8129139, -0.404268",
    "lat": 50.8129139,
    "lng": -0.404268
  },
  {
    "name": "Tollgate",
    "road": "Holyhead Road",
    "location": "COVENTRY",
    "postcode": "CV5 8HX",
    "address": "Holyhead Road COVENTRY CV5 8HX",
    "coordinates": "52.4194917, -1.5508557",
    "lat": 52.4194917,
    "lng": -1.5508557
  },
  {
    "name": "Town House",
    "road": "18-22 Yarmouth Road",
    "location": "NORWICH",
    "postcode": "NR7 0EF",
    "address": "18-22 Yarmouth Road NORWICH NR7 0EF",
    "coordinates": "52.6266257, 1.3333124",
    "lat": 52.6266257,
    "lng": 1.3333124
  },
  {
    "name": "Tramway",
    "road": "167-169 Victoria Road West",
    "location": "BLACKPOOL",
    "postcode": "FY5 3LB",
    "address": "167-169 Victoria Road West BLACKPOOL FY5 3LB",
    "coordinates": "53.876366, -3.034497",
    "lat": 53.876366,
    "lng": -3.034497
  },
  {
    "name": "Trent Port",
    "road": "Ramper Road",
    "location": "GAINSBOROUGH",
    "postcode": "DN21 1NE",
    "address": "Ramper Road GAINSBOROUGH DN21 1NE",
    "coordinates": "53.3922793, -0.8195847",
    "lat": 53.3922793,
    "lng": -0.8195847
  },
  {
    "name": "Upper Boat Inn",
    "road": "Williams Place",
    "location": "PONTYPRIDD",
    "postcode": "CF37 5BH",
    "address": "Williams Place PONTYPRIDD CF37 5BH",
    "coordinates": "51.5766445, -3.2946492",
    "lat": 51.5766445,
    "lng": -3.2946492
  },
  {
    "name": "Village Inn",
    "road": "33-43 School Lane",
    "location": "NORWICH",
    "postcode": "NR9 3AD",
    "address": "33-43 School Lane NORWICH NR9 3AD",
    "coordinates": "52.6163034, 1.1936739",
    "lat": 52.6163034,
    "lng": 1.1936739
  },
  {
    "name": "Walsgrave",
    "road": "382 Walsgrave Road",
    "location": "COVENTRY",
    "postcode": "CV2 4AF",
    "address": "382 Walsgrave Road COVENTRY CV2 4AF",
    "coordinates": "52.4139341, -1.4710342",
    "lat": 52.4139341,
    "lng": -1.4710342
  },
  {
    "name": "Waters Edge",
    "road": "Reservoir Road",
    "location": "RUISLIP",
    "postcode": "HA4 7TY",
    "address": "Reservoir Road RUISLIP HA4 7TY",
    "coordinates": "51.5914803, -0.4329755",
    "lat": 51.5914803,
    "lng": -0.4329755
  },
  {
    "name": "West Bulls",
    "road": "Bricknell Avenue",
    "location": "HULL",
    "postcode": "HU5 4QD",
    "address": "Bricknell Avenue HULL HU5 4QD",
    "coordinates": "53.7702594, -0.3921023",
    "lat": 53.7702594,
    "lng": -0.3921023
  },
  {
    "name": "Wharton Park",
    "road": "Weaver Valley Road",
    "location": "CHESHIRE",
    "postcode": "CW7 3DB",
    "address": "Weaver Valley Road CHESHIRE CW7 3DB",
    "coordinates": "53.1996029, -2.5150738",
    "lat": 53.1996029,
    "lng": -2.5150738
  },
  {
    "name": "Wheatsheaf Inn",
    "road": "Fellowsfield Way",
    "location": "CHESTER",
    "postcode": "CH1 6JS",
    "address": "Fellowsfield Way CHESTER CH1 6JS",
    "coordinates": "53.23299489999999, -2.9423765",
    "lat": 53.2329949,
    "lng": -2.9423765
  },
  {
    "name": "White Swan",
    "road": "Alcester Road",
    "location": "BIRMINGHAM",
    "postcode": "B47 6JG",
    "address": "Alcester Road BIRMINGHAM B47 6JG",
    "coordinates": "52.3815477, -1.8845224",
    "lat": 52.3815477,
    "lng": -1.8845224
  },
  {
    "name": "White Swan",
    "road": "Mansbridge Road",
    "location": "SOUTHAMPTON",
    "postcode": "SO18 3HW",
    "address": "Mansbridge Road SOUTHAMPTON SO18 3HW",
    "coordinates": "50.9378878, -1.3592169",
    "lat": 50.9378878,
    "lng": -1.3592169
  },
  {
    "name": "Wilbury (formally Gardeners)",
    "road": "Willbury Hills Road",
    "location": "GARDEN CITY",
    "postcode": "SG6 4LG",
    "address": "Willbury Hills Road GARDEN CITY SG6 4LG",
    "coordinates": "51.9824024, -0.2499116",
    "lat": 51.9824024,
    "lng": -0.2499116
  },
  {
    "name": "Willow Tree",
    "road": "Condor Way",
    "location": "DEVON",
    "postcode": "TQ2 7TG",
    "address": "Condor Way DEVON TQ2 7TG",
    "coordinates": "50.4901116, -3.5570425",
    "lat": 50.4901116,
    "lng": -3.5570425
  },
  {
    "name": "Windmill",
    "road": "Hulme Road",
    "location": "MANCHESTER",
    "postcode": "M34 2WZ",
    "address": "Hulme Road MANCHESTER M34 2WZ",
    "coordinates": "53.4555071, -2.1430632",
    "lat": 53.4555071,
    "lng": -2.1430632
  },
  {
    "name": "Wolverton House",
    "road": "Stratford Road",
    "location": "MILTON KEYNES",
    "postcode": "MK12 5NZ",
    "address": "Stratford Road MILTON KEYNES MK12 5NZ",
    "coordinates": "52.0599375, -0.8375892",
    "lat": 52.0599375,
    "lng": -0.8375892
  },
  {
    "name": "Woodend",
    "road": "Chesterfield Road",
    "location": "SUTTON-IN-ASHFIEL",
    "postcode": "NG17 2QJ",
    "address": "Chesterfield Road SUTTON-IN-ASHFIEL NG17 2QJ",
    "coordinates": "53.13443, -1.3117047",
    "lat": 53.13443,
    "lng": -1.3117047
  },
  {
    "name": "World Turned Upside Down",
    "road": "387 Basingstoke Road",
    "location": "BERKSHIRE",
    "postcode": "RG2 0JE",
    "address": "387 Basingstoke Road BERKSHIRE RG2 0JE",
    "coordinates": "51.4294225, -0.968017",
    "lat": 51.4294225,
    "lng": -0.968017
  },
  {
    "name": "Young Vanish Inn",
    "road": "The Hill",
    "location": "CHESTERFIELD",
    "postcode": "S44 5NB",
    "address": "The Hill CHESTERFIELD S44 5NB",
    "coordinates": "53.1896241, -1.2846751",
    "lat": 53.1896241,
    "lng": -1.2846751
  }
]
