[
  {
    "name": "Acorn",
    "road": "Village Road",
    "location": "WIRRAL",
    "postcode": "CH63 8PT",
    "address": "Village Road WIRRAL CH63 8PT",
    "coordinates": "53.3550021, -3.0260045",
    "lat": 53.3550021,
    "lng": -3.0260045
  },
  {
    "name": "Acton Park",
    "road": "Chester Road",
    "location": "WREXHAM",
    "postcode": "LL11 2SN",
    "address": "Chester Road WREXHAM LL11 2SN",
    "coordinates": "53.0613782, -2.9901135",
    "lat": 53.0613782,
    "lng": -2.9901135
  },
  {
    "name": "Albion",
    "road": "226 Red Bank Road",
    "location": "BLACKPOOL",
    "postcode": "FY2 0HJ",
    "address": "226 Red Bank Road BLACKPOOL FY2 0HJ",
    "coordinates": "53.8519158, -3.039248",
    "lat": 53.8519158,
    "lng": -3.039248
  },
  {
    "name": "Alleyns Head",
    "road": "Park Hall Road",
    "location": "LONDON",
    "postcode": "SE21 8BW",
    "address": "Park Hall Road LONDON SE21 8BW",
    "coordinates": "51.4360904, -0.0904881",
    "lat": 51.4360904,
    "lng": -0.0904881
  },
  {
    "name": "Alt Park",
    "road": "Northway",
    "location": "LIVERPOOL",
    "postcode": "L31 5JA",
    "address": "Northway LIVERPOOL L31 5JA",
    "coordinates": "53.500605, -2.9461244",
    "lat": 53.500605,
    "lng": -2.9461244
  },
  {
    "name": "Amber Tavern",
    "road": "321 Hagley Road West",
    "location": "BIRMINGHAM",
    "postcode": "B32 2AL",
    "address": "321 Hagley Road West BIRMINGHAM B32 2AL",
    "coordinates": "52.4652053, -1.9849233",
    "lat": 52.4652053,
    "lng": -1.9849233
  },
  {
    "name": "Ancient Oak",
    "road": "Merrytrees Lane",
    "location": "COTTAM",
    "postcode": "PR4 0NZ",
    "address": "Merrytrees Lane COTTAM PR4 0NZ",
    "coordinates": "53.7843998, -2.7569096",
    "lat": 53.7843998,
    "lng": -2.7569096
  },
  {
    "name": "Anderton Arms",
    "road": "Longsands Lane",
    "location": "PRESTON",
    "postcode": "PR2 9PS",
    "address": "Longsands Lane PRESTON PR2 9PS",
    "coordinates": "53.7869779, -2.6733104",
    "lat": 53.7869779,
    "lng": -2.6733104
  },
  {
    "name": "Anson",
    "road": "Station Road",
    "location": "WALLSEND",
    "postcode": "NE28 8QS",
    "address": "Station Road WALLSEND NE28 8QS",
    "coordinates": "54.991124, -1.5336715",
    "lat": 54.991124,
    "lng": -1.5336715
  },
  {
    "name": "Antelope Inn",
    "road": "Holyhead Road",
    "location": "BANGOR",
    "postcode": "LL57 2HZ",
    "address": "Holyhead Road BANGOR LL57 2HZ",
    "coordinates": "53.2244355, -4.1475894",
    "lat": 53.2244355,
    "lng": -4.1475894
  },
  {
    "name": "Apple Tree",
    "road": "Compton Acres",
    "location": "NOTTINGHAM",
    "postcode": "NG2 7PA",
    "address": "Compton Acres NOTTINGHAM NG2 7PA",
    "coordinates": "52.9186672, -1.1540526",
    "lat": 52.9186672,
    "lng": -1.1540526
  },
  {
    "name": "Ardleigh",
    "road": "124 Ardleigh Green Road",
    "location": "ESSEX",
    "postcode": "RM11 2SH",
    "address": "124 Ardleigh Green Road ESSEX RM11 2SH",
    "coordinates": "51.584419, 0.220875",
    "lat": 51.584419,
    "lng": 0.220875
  },
  {
    "name": "Argosy",
    "road": "Manor Road",
    "location": "DERBY",
    "postcode": "DE22 3HZ",
    "address": "Manor Road DERBY DE22 3HZ",
    "coordinates": "52.9124516, -1.5075266",
    "lat": 52.9124516,
    "lng": -1.5075266
  },
  {
    "name": "Armytage Arms",
    "road": "Towngate",
    "location": "BRIGHOUSE",
    "postcode": "HD6 4HX",
    "address": "Towngate BRIGHOUSE HD6 4HX",
    "coordinates": "53.7031091, -1.7605019",
    "lat": 53.7031091,
    "lng": -1.7605019
  },
  {
    "name": "Ashley Park",
    "road": "Ashley Park Road",
    "location": "WALTON ON THAMES",
    "postcode": "KT12 1JP",
    "address": "Ashley Park Road WALTON ON THAMES KT12 1JP",
    "coordinates": "51.3736559, -0.4151747",
    "lat": 51.3736559,
    "lng": -0.4151747
  },
  {
    "name": "Attimore Hall",
    "road": "Ridgeway",
    "location": "WELWYN GARDEN CITY",
    "postcode": "AL7 2AD",
    "address": "Ridgeway WELWYN GARDEN CITY AL7 2AD",
    "coordinates": "51.7993499, -0.1816286",
    "lat": 51.7993499,
    "lng": -0.1816286
  },
  {
    "name": "Auctioneers",
    "road": "6 North Court",
    "location": "GLASGOW",
    "postcode": "G1 2DP",
    "address": "6 North Court GLASGOW G1 2DP",
    "coordinates": "55.8607087, -4.252518",
    "lat": 55.8607087,
    "lng": -4.252518
  },
  {
    "name": "Avenue",
    "road": "100 Chanterlands Avenue",
    "location": "HULL",
    "postcode": "HU5 3TS",
    "address": "100 Chanterlands Avenue HULL HU5 3TS",
    "coordinates": "53.7552994, -0.3735386",
    "lat": 53.7552994,
    "lng": -0.3735386
  },
  {
    "name": "Bank",
    "road": "Old George Street",
    "location": "PLYMOUTH",
    "postcode": "PL1 2TG",
    "address": "Old George Street PLYMOUTH PL1 2TG",
    "coordinates": "50.3695709, -4.1445111",
    "lat": 50.3695709,
    "lng": -4.1445111
  },
  {
    "name": "Barley Mow",
    "road": "Warwick Road",
    "location": "BANBURY",
    "postcode": "OX16 1SS",
    "address": "Warwick Road BANBURY OX16 1SS",
    "coordinates": "52.0710358, -1.3631929",
    "lat": 52.0710358,
    "lng": -1.3631929
  },
  {
    "name": "Barton Arms",
    "road": "2 Stableford",
    "location": "MANCHESTER",
    "postcode": "M28 2ED",
    "address": "2 Stableford MANCHESTER M28 2ED",
    "coordinates": "53.4975379, -2.3757312",
    "lat": 53.4975379,
    "lng": -2.3757312
  },
  {
    "name": "Bay Horse",
    "road": "1 Station Road",
    "location": "BLACKPOOL",
    "postcode": "FY5 5HY",
    "address": "1 Station Road BLACKPOOL FY5 5HY",
    "coordinates": "53.8705347, -2.9993924",
    "lat": 53.8705347,
    "lng": -2.9993924
  },
  {
    "name": "Bay Horse Inn",
    "road": "Sanderson Terrace",
    "location": "CRAMLINGTON",
    "postcode": "NE23 6XB",
    "address": "Sanderson Terrace CRAMLINGTON NE23 6XB",
    "coordinates": "55.2382889, -1.6106972",
    "lat": 55.2382889,
    "lng": -1.6106972
  },
  {
    "name": "Beacon",
    "road": "Earsdon Road",
    "location": "WHITLEY BAY",
    "postcode": "NE25 9PT",
    "address": "Earsdon Road WHITLEY BAY NE25 9PT",
    "coordinates": "55.0419706, -1.4817753",
    "lat": 55.0419706,
    "lng": -1.4817753
  },
  {
    "name": "Beaufort Arms",
    "road": "55 North Road",
    "location": "BRISTOL",
    "postcode": "BS34 8PB",
    "address": "55 North Road BRISTOL BS34 8PB",
    "coordinates": "51.5160676, -2.5455136",
    "lat": 51.5160676,
    "lng": -2.5455136
  },
  {
    "name": "Beech Tree",
    "road": "Southella Way",
    "location": "HULL",
    "postcode": "HU10 7LY",
    "address": "Southella Way HULL HU10 7LY",
    "coordinates": "53.7486758, -0.4500905",
    "lat": 53.7486758,
    "lng": -0.4500905
  },
  {
    "name": "Beehive",
    "road": "90 Dover Green Road",
    "location": "REIGATE",
    "postcode": "RH2 8EG",
    "address": "90 Dover Green Road REIGATE RH2 8EG",
    "coordinates": "51.2196715, -0.2009316",
    "lat": 51.2196715,
    "lng": -0.2009316
  },
  {
    "name": "Beekeepers",
    "road": "18-22 Market Square",
    "location": "WITNEY",
    "postcode": "OX28 6BB",
    "address": "18-22 Market Square WITNEY OX28 6BB",
    "coordinates": "51.7845859, -1.4857904",
    "lat": 51.7845859,
    "lng": -1.4857904
  },
  {
    "name": "Bell",
    "road": "Birmingham Road",
    "location": "WALSALL",
    "postcode": "WS5 3JP",
    "address": "Birmingham Road WALSALL WS5 3JP",
    "coordinates": "52.5651124, -1.9480113",
    "lat": 52.5651124,
    "lng": -1.9480113
  },
  {
    "name": "Belle Vue",
    "road": "Whitegate Drive",
    "location": "BLACKPOOL",
    "postcode": "FY3 9DQ",
    "address": "Whitegate Drive BLACKPOOL FY3 9DQ",
    "coordinates": "53.8162038, -3.0368231",
    "lat": 53.8162038,
    "lng": -3.0368231
  },
  {
    "name": "Beverley Hotel",
    "road": "75-77 Cathedral Road",
    "location": "CARDIFF",
    "postcode": "CF11 9PG",
    "address": "75-77 Cathedral Road CARDIFF CF11 9PG",
    "coordinates": "51.485329, -3.1945599",
    "lat": 51.485329,
    "lng": -3.1945599
  },
  {
    "name": "Birley Hotel",
    "road": "Birley Moor Road",
    "location": "SHEFFIELD",
    "postcode": "S12 4WB",
    "address": "Birley Moor Road SHEFFIELD S12 4WB",
    "coordinates": "53.3507236, -1.4030175",
    "lat": 53.3507236,
    "lng": -1.4030175
  },
  {
    "name": "Black Bull",
    "road": "Garstang Road",
    "location": "PRESTON",
    "postcode": "PR2 9UP",
    "address": "Garstang Road PRESTON PR2 9UP",
    "coordinates": "53.7916224, -2.7136209",
    "lat": 53.7916224,
    "lng": -2.7136209
  },
  {
    "name": "Black Bull",
    "road": "Gateacre Brow",
    "location": "LIVERPOOL",
    "postcode": "L25 3PA",
    "address": "Gateacre Brow LIVERPOOL L25 3PA",
    "coordinates": "53.3831624, -2.8631809",
    "lat": 53.3831624,
    "lng": -2.8631809
  },
  {
    "name": "Black Bull",
    "road": "High Street",
    "location": "YARM",
    "postcode": "TS15 9BH",
    "address": "High Street YARM TS15 9BH",
    "coordinates": "54.5084466, -1.3540934",
    "lat": 54.5084466,
    "lng": -1.3540934
  },
  {
    "name": "Black Bull",
    "road": "10 The Village",
    "location": "PETERLEE",
    "postcode": "SR8 2NA",
    "address": "10 The Village PETERLEE SR8 2NA",
    "coordinates": "54.751137, -1.360905",
    "lat": 54.751137,
    "lng": -1.360905
  },
  {
    "name": "Black Bull Hotel",
    "road": "Hull Road",
    "location": "YORK",
    "postcode": "YO10 3LF",
    "address": "Hull Road YORK YO10 3LF",
    "coordinates": "53.9538421, -1.0431819",
    "lat": 53.9538421,
    "lng": -1.0431819
  },
  {
    "name": "Black Horse",
    "road": "Harrow Road",
    "location": "WEMBLEY",
    "postcode": "HA0 2QP",
    "address": "Harrow Road WEMBLEY HA0 2QP",
    "coordinates": "51.5601394, -0.3291493",
    "lat": 51.5601394,
    "lng": -0.3291493
  },
  {
    "name": "Black Horse",
    "road": "Crofton Road",
    "location": "ORPINGTON",
    "postcode": "BR6 8NW",
    "address": "Crofton Road ORPINGTON BR6 8NW",
    "coordinates": "51.3684061, 0.0575696",
    "lat": 51.3684061,
    "lng": 0.0575696
  },
  {
    "name": "Black Horse",
    "road": "Illey Lane",
    "location": "HALESOWEN",
    "postcode": "B62 0HJ",
    "address": "Illey Lane HALESOWEN B62 0HJ",
    "coordinates": "52.4339727, -2.0291298",
    "lat": 52.4339727,
    "lng": -2.0291298
  },
  {
    "name": "Black Horse Inn",
    "road": "70 Rainhill Road",
    "location": "PRESCOT",
    "postcode": "L35 4PF",
    "address": "70 Rainhill Road PRESCOT L35 4PF",
    "coordinates": "53.4246506, -2.7656261",
    "lat": 53.4246506,
    "lng": -2.7656261
  },
  {
    "name": "Blackberry Jack",
    "road": "1 St. Brelades Place",
    "location": "ST ALBANS",
    "postcode": "AL4 9RG",
    "address": "1 St. Brelades Place ST ALBANS AL4 9RG",
    "coordinates": "51.7696072, -0.297526",
    "lat": 51.7696072,
    "lng": -0.297526
  },
  {
    "name": "Blackbird Hotel",
    "road": "Blackbird Road",
    "location": "LEICESTER",
    "postcode": "LE4 0FW",
    "address": "Blackbird Road LEICESTER LE4 0FW",
    "coordinates": "52.6461975, -1.1475779",
    "lat": 52.6461975,
    "lng": -1.1475779
  },
  {
    "name": "Blossoms",
    "road": "1-3 Woodlands Road",
    "location": "LYTHAM ST ANNES",
    "postcode": "FY8 4EP",
    "address": "1-3 Woodlands Road LYTHAM ST ANNES FY8 4EP",
    "coordinates": "53.7454269, -2.9902133",
    "lat": 53.7454269,
    "lng": -2.9902133
  },
  {
    "name": "Blue Bowl",
    "road": "178 High Street",
    "location": "BRISTOL",
    "postcode": "BS15 3HJ",
    "address": "178 High Street BRISTOL BS15 3HJ",
    "coordinates": "51.4462211, -2.5087041",
    "lat": 51.4462211,
    "lng": -2.5087041
  },
  {
    "name": "Blunsdon Arms",
    "road": "Thamesdown Drive",
    "location": "SWINDON",
    "postcode": "SN25 2NA",
    "address": "Thamesdown Drive SWINDON SN25 2NA",
    "coordinates": "51.5996516, -1.8021851",
    "lat": 51.5996516,
    "lng": -1.8021851
  },
  {
    "name": "Bonnie Prince Charlie",
    "road": "High Common Road",
    "location": "GLASGOW",
    "postcode": "G74 2AU",
    "address": "High Common Road GLASGOW G74 2AU",
    "coordinates": "55.763258, -4.1510717",
    "lat": 55.763258,
    "lng": -4.1510717
  },
  {
    "name": "Bowling Green",
    "road": "Friary Road",
    "location": "LICHFIELD",
    "postcode": "WS13 6QJ",
    "address": "Friary Road LICHFIELD WS13 6QJ",
    "coordinates": "52.6790247, -1.8352827",
    "lat": 52.6790247,
    "lng": -1.8352827
  },
  {
    "name": "Bradley Inn",
    "road": "Laceby Road",
    "location": "GRIMSBY",
    "postcode": "DN34 5NX",
    "address": "Laceby Road GRIMSBY DN34 5NX",
    "coordinates": "53.5504109, -0.1258721",
    "lat": 53.5504109,
    "lng": -0.1258721
  },
  {
    "name": "Bramley Cottage",
    "road": "Callow Hill Lane",
    "location": "REDDITCH",
    "postcode": "B97 5QB",
    "address": "Callow Hill Lane REDDITCH B97 5QB",
    "coordinates": "52.2818411, -1.9572663",
    "lat": 52.2818411,
    "lng": -1.9572663
  },
  {
    "name": "Brass Haus",
    "road": "8-9 Westover Road",
    "location": "BOURNEMOUTH",
    "postcode": "BH1 2BY",
    "address": "8-9 Westover Road BOURNEMOUTH BH1 2BY",
    "coordinates": "50.7194869, -1.8759208",
    "lat": 50.7194869,
    "lng": -1.8759208
  },
  {
    "name": "Briars",
    "road": "71 Brambleside",
    "location": "KETTERING",
    "postcode": "NN16 9BP",
    "address": "71 Brambleside KETTERING NN16 9BP",
    "coordinates": "52.4170411, -0.719324",
    "lat": 52.4170411,
    "lng": -0.719324
  },
  {
    "name": "Brimsham Park",
    "road": "Lark Rise",
    "location": "BRISTOL",
    "postcode": "BS37 7PJ",
    "address": "Lark Rise BRISTOL BS37 7PJ",
    "coordinates": "51.5515245, -2.411883",
    "lat": 51.5515245,
    "lng": -2.411883
  },
  {
    "name": "Britannia Inn",
    "road": "London Road",
    "location": "OXFORD",
    "postcode": "OX3 7AA",
    "address": "London Road OXFORD OX3 7AA",
    "coordinates": "51.7592509, -1.2140322",
    "lat": 51.7592509,
    "lng": -1.2140322
  },
  {
    "name": "Broadway",
    "road": "Duffield Road",
    "location": "DERBY",
    "postcode": "DE22 1JB",
    "address": "Duffield Road DERBY DE22 1JB",
    "coordinates": "52.9400053, -1.4842705",
    "lat": 52.9400053,
    "lng": -1.4842705
  },
  {
    "name": "Brockwell Seam",
    "road": "Brockwell Centre",
    "location": "CRAMLINGTON",
    "postcode": "NE23 1XZ",
    "address": "Brockwell Centre CRAMLINGTON NE23 1XZ",
    "coordinates": "55.0957535, -1.5841746",
    "lat": 55.0957535,
    "lng": -1.5841746
  },
  {
    "name": "Brooklands",
    "road": "Kingsbury Road",
    "location": "COVENTRY",
    "postcode": "CV6 1PJ",
    "address": "Kingsbury Road COVENTRY CV6 1PJ",
    "coordinates": "52.4222544, -1.546134",
    "lat": 52.4222544,
    "lng": -1.546134
  },
  {
    "name": "Brown Cow",
    "road": "Selby Road",
    "location": "LEEDS",
    "postcode": "LS15 7AY",
    "address": "Selby Road LEEDS LS15 7AY",
    "coordinates": "53.7975327, -1.4504009",
    "lat": 53.7975327,
    "lng": -1.4504009
  },
  {
    "name": "Bruce",
    "road": "Glenbervie Business Park",
    "location": "LARBERT",
    "postcode": "FK5 4EG",
    "address": "Glenbervie Business Park LARBERT FK5 4EG",
    "coordinates": "56.0312214, -3.8398444",
    "lat": 56.0312214,
    "lng": -3.8398444
  },
  {
    "name": "Bryncoch Inn",
    "road": "Tyn yr Heol Road",
    "location": "NEATH",
    "postcode": "SA10 7EB",
    "address": "Tyn yr Heol Road NEATH SA10 7EB",
    "coordinates": "51.6516323, -3.793822399999999",
    "lat": 51.6516323,
    "lng": -3.7938224
  },
  {
    "name": "Buckinghamshire Yeoman",
    "road": "Camborne Avenue",
    "location": "AYLESBURY",
    "postcode": "HP21 7UD",
    "address": "Camborne Avenue AYLESBURY HP21 7UD",
    "coordinates": "51.8056623, -0.7851753",
    "lat": 51.8056623,
    "lng": -0.7851753
  },
  {
    "name": "Bull",
    "road": "74-76 Market Place",
    "location": "ROMFORD",
    "postcode": "RM1 3ER",
    "address": "74-76 Market Place ROMFORD RM1 3ER",
    "coordinates": "51.57912409999999, 0.1827635",
    "lat": 51.5791241,
    "lng": 0.1827635
  },
  {
    "name": "Bulls Head",
    "road": "Stratford Road",
    "location": "BIRMINGHAM",
    "postcode": "B28 9EF",
    "address": "Stratford Road BIRMINGHAM B28 9EF",
    "coordinates": "52.4282522, -1.8421295",
    "lat": 52.4282522,
    "lng": -1.8421295
  },
  {
    "name": "Bulls Head",
    "road": "504 Manchester Road",
    "location": "TYLDESLEY",
    "postcode": "M29 7BP",
    "address": "504 Manchester Road TYLDESLEY M29 7BP",
    "coordinates": "53.5019338, -2.4531419",
    "lat": 53.5019338,
    "lng": -2.4531419
  },
  {
    "name": "Bulls Head",
    "road": "Binley Road",
    "location": "COVENTRY",
    "postcode": "CV3 1HB",
    "address": "Binley Road COVENTRY CV3 1HB",
    "coordinates": "52.4062846, -1.4761544",
    "lat": 52.4062846,
    "lng": -1.4761544
  },
  {
    "name": "Bungalows & Bears",
    "road": "Old Fire Station",
    "location": "SHEFFIELD",
    "postcode": "S1 4GF",
    "address": "Old Fire Station SHEFFIELD S1 4GF",
    "coordinates": "53.3592799, -1.4206167",
    "lat": 53.3592799,
    "lng": -1.4206167
  },
  {
    "name": "Burnt Post",
    "road": "Kenpas Highway",
    "location": "COVENTRY",
    "postcode": "CV3 6AW",
    "address": "Kenpas Highway COVENTRY CV3 6AW",
    "coordinates": "52.3845854, -1.5300476",
    "lat": 52.3845854,
    "lng": -1.5300476
  },
  {
    "name": "Cadland",
    "road": "342 High Road",
    "location": "NOTTINGHAM",
    "postcode": "NG9 5EG",
    "address": "342 High Road NOTTINGHAM NG9 5EG",
    "coordinates": "52.9149553, -1.2349055",
    "lat": 52.9149553,
    "lng": -1.2349055
  },
  {
    "name": "California",
    "road": "Brighton Road",
    "location": "SURREY",
    "postcode": "SM2 5SU",
    "address": "Brighton Road SURREY SM2 5SU",
    "coordinates": "49.1913466, -122.8490125",
    "lat": 49.1913466,
    "lng": -122.8490125
  },
  {
    "name": "Cannon",
    "road": "Carlton Road",
    "location": "WORKSOP",
    "postcode": "S81 7LS",
    "address": "Carlton Road WORKSOP S81 7LS",
    "coordinates": "53.3247967, -1.1216917",
    "lat": 53.3247967,
    "lng": -1.1216917
  },
  {
    "name": "Castle",
    "road": "High Street",
    "location": "BENFLEET",
    "postcode": "SS7 2PB",
    "address": "High Street BENFLEET SS7 2PB",
    "coordinates": "51.5531283, 0.6081603",
    "lat": 51.5531283,
    "lng": 0.6081603
  },
  {
    "name": "Castle Gardens",
    "road": "Poulton Road",
    "location": "POULTON LE FYLDE",
    "postcode": "FY6 7NH",
    "address": "Poulton Road POULTON LE FYLDE FY6 7NH",
    "coordinates": "53.8528829, -3.0032517",
    "lat": 53.8528829,
    "lng": -3.0032517
  },
  {
    "name": "Centenary",
    "road": "Glebe Estate",
    "location": "STOCKTON ON TEES",
    "postcode": "TS20 1RF",
    "address": "Glebe Estate STOCKTON ON TEES TS20 1RF",
    "coordinates": "54.5898404, -1.3242549",
    "lat": 54.5898404,
    "lng": -1.3242549
  },
  {
    "name": "Centurion",
    "road": "Newark Road",
    "location": "LINCOLN",
    "postcode": "LN6 8LB",
    "address": "Newark Road LINCOLN LN6 8LB",
    "coordinates": "53.1904996, -0.5906369",
    "lat": 53.1904996,
    "lng": -0.5906369
  },
  {
    "name": "Chaddlewood",
    "road": "100 Glen Road",
    "location": "PLYMOUTH",
    "postcode": "PL7 2XS",
    "address": "100 Glen Road PLYMOUTH PL7 2XS",
    "coordinates": "50.3871366, -4.0235162",
    "lat": 50.3871366,
    "lng": -4.0235162
  },
  {
    "name": "Cherry Tree",
    "road": "35 Common Lane",
    "location": "WARRINGTON",
    "postcode": "WA3 4EX",
    "address": "35 Common Lane WARRINGTON WA3 4EX",
    "coordinates": "53.4532764, -2.5221827",
    "lat": 53.4532764,
    "lng": -2.5221827
  },
  {
    "name": "Chessington Oak",
    "road": "Moor Lane",
    "location": "CHESSINGTON",
    "postcode": "KT9 1HX",
    "address": "Moor Lane CHESSINGTON KT9 1HX",
    "coordinates": "51.3642352, -0.2968963",
    "lat": 51.3642352,
    "lng": -0.2968963
  },
  {
    "name": "Chestnut Tree",
    "road": "2 Castlecroft Road",
    "location": "WOLVERHAMPTON",
    "postcode": "WV3 8BT",
    "address": "2 Castlecroft Road WOLVERHAMPTON WV3 8BT",
    "coordinates": "52.5796301, -2.1703774",
    "lat": 52.5796301,
    "lng": -2.1703774
  },
  {
    "name": "Church Tavern",
    "road": "25 Church Road",
    "location": "BIRMINGHAM",
    "postcode": "B42 2LA",
    "address": "25 Church Road BIRMINGHAM B42 2LA",
    "coordinates": "52.5271363, -1.8983964",
    "lat": 52.5271363,
    "lng": -1.8983964
  },
  {
    "name": "Clay Pipe Inn",
    "road": "Organford Road",
    "location": "POOLE",
    "postcode": "BH16 6JY",
    "address": "Organford Road POOLE BH16 6JY",
    "coordinates": "50.7214782, -2.0859481",
    "lat": 50.7246697,
    "lng": -2.0861162
  },
  {
    "name": "Cleveland Arms",
    "road": "Stowheath Lane",
    "location": "WOLVERHAMPTON",
    "postcode": "WV1 2QN",
    "address": "Stowheath Lane WOLVERHAMPTON WV1 2QN",
    "coordinates": "52.5820793, -2.0868453",
    "lat": 52.5820793,
    "lng": -2.0868453
  },
  {
    "name": "Cock Inn",
    "road": "26 High Street",
    "location": "NR LEIGHTON BUZZARD",
    "postcode": "LU7 0NR",
    "address": "26 High Street NR LEIGHTON BUZZARD LU7 0NR",
    "coordinates": "51.915858, -0.6635738",
    "lat": 51.915858,
    "lng": -0.6635738
  },
  {
    "name": "Colcot Arms Hotel",
    "road": "Colcot Road",
    "location": "BARRY",
    "postcode": "CF62 8UJ",
    "address": "Colcot Road BARRY CF62 8UJ",
    "coordinates": "51.4169831, -3.2829428",
    "lat": 51.4169831,
    "lng": -3.2829428
  },
  {
    "name": "Colebrook",
    "road": "Haslucks Green Road",
    "location": "SOLIHULL",
    "postcode": "B90 2LL",
    "address": "Haslucks Green Road SOLIHULL B90 2LL",
    "coordinates": "52.4086404, -1.8391124",
    "lat": 52.4086404,
    "lng": -1.8391124
  },
  {
    "name": "Collingtree",
    "road": "Butts Road",
    "location": "NORTHAMPTON",
    "postcode": "NN4 0UE",
    "address": "Butts Road NORTHAMPTON NN4 0UE",
    "coordinates": "52.2055462, -0.8990918",
    "lat": 52.2055462,
    "lng": -0.8990918
  },
  {
    "name": "Coopers",
    "road": "Magpie Crescent",
    "location": "STEVENAGE",
    "postcode": "SG2 9RZ",
    "address": "Magpie Crescent STEVENAGE SG2 9RZ",
    "coordinates": "51.8950147, -0.1586327",
    "lat": 51.8950147,
    "lng": -0.1586327
  },
  {
    "name": "Coulby Farm",
    "road": "Stokesley Road",
    "location": "MIDDLESBROUGH",
    "postcode": "TS8 9DX",
    "address": "Stokesley Road MIDDLESBROUGH TS8 9DX",
    "coordinates": "54.5349801, -1.2047545",
    "lat": 54.5349801,
    "lng": -1.2047545
  },
  {
    "name": "Coundon Hotel",
    "road": "Barkers Butts Lane",
    "location": "COVENTRY",
    "postcode": "CV6 1DT",
    "address": "Barkers Butts Lane COVENTRY CV6 1DT",
    "coordinates": "52.4156298, -1.5247514",
    "lat": 52.4156298,
    "lng": -1.5247514
  },
  {
    "name": "Country Girl",
    "road": "1 Raddlebarn Road",
    "location": "BIRMINGHAM",
    "postcode": "B29 6HJ",
    "address": "1 Raddlebarn Road BIRMINGHAM B29 6HJ",
    "coordinates": "52.4367886, -1.9303981",
    "lat": 52.4367886,
    "lng": -1.9303981
  },
  {
    "name": "County Hotel",
    "road": "34 Sunderland Road",
    "location": "SOUTH SHIELDS",
    "postcode": "NE33 4UU",
    "address": "34 Sunderland Road SOUTH SHIELDS NE33 4UU",
    "coordinates": "54.9852546, -1.4226028",
    "lat": 54.9852546,
    "lng": -1.4226028
  },
  {
    "name": "County Hotel",
    "road": "Church Road",
    "location": "ST ANNES",
    "postcode": "FY8 5LH",
    "address": "Church Road ST ANNES FY8 5LH",
    "coordinates": "53.7532679, -3.0114934",
    "lat": 53.7532679,
    "lng": -3.0114934
  },
  {
    "name": "Court",
    "road": "108a Tottenham Court Road",
    "location": "LONDON",
    "postcode": "W1T 5AA",
    "address": "108a Tottenham Court Road LONDON W1T 5AA",
    "coordinates": "51.52295489999999, -0.1370696",
    "lat": 51.5229549,
    "lng": -0.1370696
  },
  {
    "name": "Court Oak",
    "road": "Balden Road",
    "location": "BIRMINGHAM",
    "postcode": "B32 2EH",
    "address": "Balden Road BIRMINGHAM B32 2EH",
    "coordinates": "52.4623797, -1.9765735",
    "lat": 52.4623797,
    "lng": -1.9765735
  },
  {
    "name": "Crabtree",
    "road": "220 Frimley Road",
    "location": "CAMBERLEY",
    "postcode": "GU15 2QJ",
    "address": "220 Frimley Road CAMBERLEY GU15 2QJ",
    "coordinates": "51.3215647, -0.7532786",
    "lat": 51.3215647,
    "lng": -0.7532786
  },
  {
    "name": "Crabtree",
    "road": "2 Leverstock Green Road",
    "location": "HEMEL HEMPSTEAD",
    "postcode": "HP2 4HG",
    "address": "2 Leverstock Green Road HEMEL HEMPSTEAD HP2 4HG",
    "coordinates": "51.7559291, -0.4447109",
    "lat": 51.7559291,
    "lng": -0.4447109
  },
  {
    "name": "Craigmarloch",
    "road": "4 Auchinbee Way",
    "location": "GLASGOW",
    "postcode": "G68 0EZ",
    "address": "4 Auchinbee Way GLASGOW G68 0EZ",
    "coordinates": "55.9555652, -4.0197622",
    "lat": 55.9555652,
    "lng": -4.0197622
  },
  {
    "name": "Cricketers",
    "road": "Littlefield Lane",
    "location": "GRIMSBY",
    "postcode": "DN34 4PS",
    "address": "Littlefield Lane GRIMSBY DN34 4PS",
    "coordinates": "53.5616941, -0.1040486",
    "lat": 53.5616941,
    "lng": -0.1040486
  },
  {
    "name": "Crofters Arms",
    "road": "Twickenham Drive",
    "location": "LIVERPOOL",
    "postcode": "L36 4QG",
    "address": "Twickenham Drive LIVERPOOL L36 4QG",
    "coordinates": "53.4061575, -2.8490853",
    "lat": 53.4061575,
    "lng": -2.8490853
  },
  {
    "name": "Crown",
    "road": "Four Oaks",
    "location": "SUTTON COLDFIELD",
    "postcode": "B74 4RA",
    "address": "Four Oaks SUTTON COLDFIELD B74 4RA",
    "coordinates": "52.5907716, -1.8485149",
    "lat": 52.5907716,
    "lng": -1.8485149
  },
  {
    "name": "Crown",
    "road": "28 Wickham Road",
    "location": "SURREY",
    "postcode": "CR0 8BA",
    "address": "28 Wickham Road SURREY CR0 8BA",
    "coordinates": "51.3736042, -0.054124",
    "lat": 51.3736042,
    "lng": -0.054124
  },
  {
    "name": "Crown",
    "road": "304 Liverpool Road",
    "location": "SOUTHPORT",
    "postcode": "PR8 3BZ",
    "address": "304 Liverpool Road SOUTHPORT PR8 3BZ",
    "coordinates": "53.6175452, -3.0167211",
    "lat": 53.6175452,
    "lng": -3.0167211
  },
  {
    "name": "Crown",
    "road": "Ealing Road",
    "location": "NORTHOLT",
    "postcode": "UB5 6AA",
    "address": "Ealing Road NORTHOLT UB5 6AA",
    "coordinates": "51.5443213, -0.3705842",
    "lat": 51.5443213,
    "lng": -0.3705842
  },
  {
    "name": "Crown",
    "road": "Anchor Road",
    "location": "WALSALL",
    "postcode": "WS9 8PT",
    "address": "Anchor Road WALSALL WS9 8PT",
    "coordinates": "52.6040833, -1.9185171",
    "lat": 52.6040833,
    "lng": -1.9185171
  },
  {
    "name": "Crown",
    "road": "43 Lime Street",
    "location": "LIVERPOOL",
    "postcode": "L1 1JQ",
    "address": "43 Lime Street LIVERPOOL L1 1JQ",
    "coordinates": "53.4067064, -2.9789799",
    "lat": 53.4067064,
    "lng": -2.9789799
  },
  {
    "name": "Crown & Anchor",
    "road": "Hollyhedge Road",
    "location": "WEST BROMWICH",
    "postcode": "B71 3BS",
    "address": "Hollyhedge Road WEST BROMWICH B71 3BS",
    "coordinates": "52.5375408, -1.982993",
    "lat": 52.5375408,
    "lng": -1.982993
  },
  {
    "name": "Crows Nest",
    "road": "Llangorse Road",
    "location": "CWMBRAN",
    "postcode": "NP44 8HU",
    "address": "Llangorse Road CWMBRAN NP44 8HU",
    "coordinates": "51.6454702, -3.0066709",
    "lat": 51.6454702,
    "lng": -3.0066709
  },
  {
    "name": "Daylight Inn",
    "road": "Station Square",
    "location": "ORPINGTON",
    "postcode": "BR5 1LZ",
    "address": "Station Square ORPINGTON BR5 1LZ",
    "coordinates": "51.389836, 0.0749807",
    "lat": 51.389836,
    "lng": 0.0749807
  },
  {
    "name": "Deers Leap",
    "road": "Queslett Road East",
    "location": "BIRMINGHAM",
    "postcode": "B43 7EE",
    "address": "Queslett Road East BIRMINGHAM B43 7EE",
    "coordinates": "52.5620727, -1.8923495",
    "lat": 52.5620727,
    "lng": -1.8923495
  },
  {
    "name": "Deers Leap",
    "road": "Cwmrhydyceirw",
    "location": "SWANSEA",
    "postcode": "SA6 6SG",
    "address": "Cwmrhydyceirw SWANSEA SA6 6SG",
    "coordinates": "51.6792557, -3.9274334",
    "lat": 51.6792557,
    "lng": -3.9274334
  },
  {
    "name": "Denton",
    "road": "West Road",
    "location": "NEWCASTLE UPON TYNE",
    "postcode": "NE5 2JJ",
    "address": "West Road NEWCASTLE UPON TYNE NE5 2JJ",
    "coordinates": "54.9824914, -1.6841039",
    "lat": 54.9824914,
    "lng": -1.6841039
  },
  {
    "name": "Deri Inn",
    "road": "Heol-Y-Deri",
    "location": "CARDIFF",
    "postcode": "CF14 6UH",
    "address": "Heol-Y-Deri CARDIFF CF14 6UH",
    "coordinates": "51.5274939, -3.2179433",
    "lat": 51.5274939,
    "lng": -3.2179433
  },
  {
    "name": "Devonshire Arms",
    "road": "Devonshire Road",
    "location": "BLACKPOOL",
    "postcode": "FY2 0TL",
    "address": "Devonshire Road BLACKPOOL FY2 0TL",
    "coordinates": "53.8309398, -3.0404982",
    "lat": 53.8309398,
    "lng": -3.0404982
  },
  {
    "name": "Devonshire Arms",
    "road": "Sewall Highway",
    "location": "COVENTRY",
    "postcode": "CV2 3NX",
    "address": "Sewall Highway COVENTRY CV2 3NX",
    "coordinates": "52.4210763, -1.4708539",
    "lat": 52.4210763,
    "lng": -1.4708539
  },
  {
    "name": "Dexter",
    "road": "Wigton Lane",
    "location": "LEEDS",
    "postcode": "LS17 8RZ",
    "address": "Wigton Lane LEEDS LS17 8RZ",
    "coordinates": "53.8580737, -1.5060353",
    "lat": 53.8580737,
    "lng": -1.5060353
  },
  {
    "name": "Dick Turpin",
    "road": "1 Gallowstree Lane",
    "location": "NEWCASTLE",
    "postcode": "ST5 2QS",
    "address": "1 Gallowstree Lane NEWCASTLE ST5 2QS",
    "coordinates": "53.00345230000001, -2.2479072",
    "lat": 53.0034523,
    "lng": -2.2479072
  },
  {
    "name": "Dog",
    "road": "Hagley Road West",
    "location": "WEST MIDLANDS",
    "postcode": "B67 5EU",
    "address": "Hagley Road West WEST MIDLANDS B67 5EU",
    "coordinates": "52.4690687, -1.974387",
    "lat": 52.4690687,
    "lng": -1.974387
  },
  {
    "name": "Dog & Gun",
    "road": "1 Wrottesley Road",
    "location": "WOLVERHAMPTON",
    "postcode": "WV6 8SB",
    "address": "1 Wrottesley Road WOLVERHAMPTON WV6 8SB",
    "coordinates": "52.5997584, -2.1723315",
    "lat": 52.5997584,
    "lng": -2.1723315
  },
  {
    "name": "Dog & Partridge",
    "road": "High Road",
    "location": "GRAYS",
    "postcode": "RM16 5UQ",
    "address": "High Road GRAYS RM16 5UQ",
    "coordinates": "51.4979909, 0.3043814",
    "lat": 51.4979909,
    "lng": 0.3043814
  },
  {
    "name": "Drakes Drum",
    "road": "11 Old Oscott Lane",
    "location": "BIRMINGHAM",
    "postcode": "B44 8TR",
    "address": "11 Old Oscott Lane BIRMINGHAM B44 8TR",
    "coordinates": "52.5400521, -1.8972582",
    "lat": 52.5400521,
    "lng": -1.8972582
  },
  {
    "name": "Duck in the Pond",
    "road": "Kenton Lane",
    "location": "HARROW",
    "postcode": "HA3 6AA",
    "address": "Kenton Lane HARROW HA3 6AA",
    "coordinates": "51.6044854, -0.3279725",
    "lat": 51.6044854,
    "lng": -0.3279725
  },
  {
    "name": "Duke of Devonshire",
    "road": "155 Terminus Road",
    "location": "EASTBOURNE",
    "postcode": "BN21 3NU",
    "address": "155 Terminus Road EASTBOURNE BN21 3NU",
    "coordinates": "50.7682546, 0.2879333",
    "lat": 50.7682546,
    "lng": 0.2879333
  },
  {
    "name": "Duke Of Wellington",
    "road": "Darlington Road",
    "location": "DURHAM",
    "postcode": "DH1 3QN",
    "address": "Darlington Road DURHAM DH1 3QN",
    "coordinates": "54.7668979, -1.5922689",
    "lat": 54.7668979,
    "lng": -1.5922689
  },
  {
    "name": "Duke of Wellington",
    "road": "30 Commercial Street",
    "location": "HALIFAX",
    "postcode": "HX1 1TA",
    "address": "30 Commercial Street HALIFAX HX1 1TA",
    "coordinates": "53.7219435, -1.8611829",
    "lat": 53.7219435,
    "lng": -1.8611829
  },
  {
    "name": "Duke Of York Camberley (was Goose)",
    "road": "88 High Street",
    "location": "CAMBERLEY",
    "postcode": "GU15 3RS",
    "address": "88 High Street CAMBERLEY GU15 3RS",
    "coordinates": "51.3370897, -0.7437967",
    "lat": 51.3370897,
    "lng": -0.7437967
  },
  {
    "name": "Earl Haig",
    "road": "Little Heath Road",
    "location": "KENT",
    "postcode": "DA7 5HH",
    "address": "Little Heath Road KENT DA7 5HH",
    "coordinates": "51.4727084, 0.1406699",
    "lat": 51.4727084,
    "lng": 0.1406699
  },
  {
    "name": "Earl of Derby",
    "road": "155 Kilburn High Road",
    "location": "LONDON",
    "postcode": "NW6 7HU",
    "address": "155 Kilburn High Road LONDON NW6 7HU",
    "coordinates": "51.54058149999999, -0.1965989",
    "lat": 51.5405815,
    "lng": -0.1965989
  },
  {
    "name": "Easington",
    "road": "135 Bloxham Road",
    "location": "BANBURY",
    "postcode": "OX16 9JU",
    "address": "135 Bloxham Road BANBURY OX16 9JU",
    "coordinates": "52.0517444, -1.3460109",
    "lat": 52.0517444,
    "lng": -1.3460109
  },
  {
    "name": "Eastfield Arms",
    "road": "Wakefield Road",
    "location": "BARNSLEY",
    "postcode": "S75 6DJ",
    "address": "Wakefield Road BARNSLEY S75 6DJ",
    "coordinates": "53.5828488, -1.487507",
    "lat": 53.5828488,
    "lng": -1.487507
  },
  {
    "name": "Eden Arms",
    "road": "Edenfield Road",
    "location": "DONCASTER",
    "postcode": "DN3 2QR",
    "address": "Edenfield Road DONCASTER DN3 2QR",
    "coordinates": "53.5554033, -1.0624253",
    "lat": 53.5554033,
    "lng": -1.0624253
  },
  {
    "name": "Eli Jenkins",
    "road": "7-8 Bute Crescent",
    "location": "CARDIFF",
    "postcode": "CF10 5AN",
    "address": "7-8 Bute Crescent CARDIFF CF10 5AN",
    "coordinates": "51.4641393, -3.1651181",
    "lat": 51.4641393,
    "lng": -3.1651181
  },
  {
    "name": "Elisabeth Arms",
    "road": "Overfield Drive",
    "location": "BILSTON",
    "postcode": "WV14 9XW",
    "address": "Overfield Drive BILSTON WV14 9XW",
    "coordinates": "52.554851, -2.0952711",
    "lat": 52.554851,
    "lng": -2.0952711
  },
  {
    "name": "Enkel Arms",
    "road": "34 Seven Sisters Road",
    "location": "LONDON",
    "postcode": "N7 6AA",
    "address": "34 Seven Sisters Road LONDON N7 6AA",
    "coordinates": "51.558559, -0.1176011",
    "lat": 51.558559,
    "lng": -0.1176011
  },
  {
    "name": "Essex Arms",
    "road": "Langley Way",
    "location": "WATFORD",
    "postcode": "WD17 3EG",
    "address": "Langley Way WATFORD WD17 3EG",
    "coordinates": "51.6673031, -0.417742",
    "lat": 51.6673031,
    "lng": -0.417742
  },
  {
    "name": "Fairfield Arms",
    "road": "92 Manchester Road",
    "location": "AUDENSHAW",
    "postcode": "M34 5GB",
    "address": "92 Manchester Road AUDENSHAW M34 5GB",
    "coordinates": "53.473543, -2.1435341",
    "lat": 53.473543,
    "lng": -2.1435341
  },
  {
    "name": "Fendrod",
    "road": "Fendrod Way",
    "location": "SWANSEA",
    "postcode": "SA7 9DG",
    "address": "Fendrod Way SWANSEA SA7 9DG",
    "coordinates": "51.6598039, -3.9091049",
    "lat": 51.6598039,
    "lng": -3.9091049
  },
  {
    "name": "Fieldhouse",
    "road": "10 Knightcote Drive",
    "location": "WEST MIDLANDS",
    "postcode": "B91 3JU",
    "address": "10 Knightcote Drive WEST MIDLANDS B91 3JU",
    "coordinates": "52.3968266, -1.786447",
    "lat": 52.3968266,
    "lng": -1.786447
  },
  {
    "name": "Fitz Regent",
    "road": "7-8 Castle Square",
    "location": "BRIGHTON",
    "postcode": "BN1 1FX",
    "address": "7-8 Castle Square BRIGHTON BN1 1FX",
    "coordinates": "50.821467, -0.1383591",
    "lat": 50.821467,
    "lng": -0.1383591
  },
  {
    "name": "Flanagans Apple Restaurant",
    "road": "18 Matthew Street",
    "location": "LIVERPOOL",
    "postcode": "L2 6RE",
    "address": "18 Matthew Street LIVERPOOL L2 6RE",
    "coordinates": "53.4062863, -2.9869303",
    "lat": 53.4062863,
    "lng": -2.9869303
  },
  {
    "name": "Fluke",
    "road": "Culcabock Road",
    "location": "INVERNESS",
    "postcode": "IV2 3XQ",
    "address": "Culcabock Road INVERNESS IV2 3XQ",
    "coordinates": "57.4732497, -4.20174",
    "lat": 57.4732497,
    "lng": -4.20174
  },
  {
    "name": "Foley Arms",
    "road": "309 Hagley Road",
    "location": "STOURBRIDGE",
    "postcode": "DY9 0RQ",
    "address": "309 Hagley Road STOURBRIDGE DY9 0RQ",
    "coordinates": "52.4379013, -2.1324679",
    "lat": 52.4379013,
    "lng": -2.1324679
  },
  {
    "name": "Font",
    "road": "Union Street",
    "location": "BRIGHTON",
    "postcode": "BN1 1HA",
    "address": "Union Street BRIGHTON BN1 1HA",
    "coordinates": "50.8222134, -0.1411597",
    "lat": 50.8222134,
    "lng": -0.1411597
  },
  {
    "name": "Four in Hand",
    "road": "957 Holderness Road",
    "location": "HULL",
    "postcode": "HU8 9DR",
    "address": "957 Holderness Road HULL HU8 9DR",
    "coordinates": "53.7698281, -0.2793902",
    "lat": 53.7698281,
    "lng": -0.2793902
  },
  {
    "name": "Four Topped Oak",
    "road": "2 Hough Green Road",
    "location": "WIDNES",
    "postcode": "WA8 4PE",
    "address": "2 Hough Green Road WIDNES WA8 4PE",
    "coordinates": "53.3780412, -2.7591402",
    "lat": 53.3780412,
    "lng": -2.7591402
  },
  {
    "name": "Fox & Hounds",
    "road": "Fox Hill",
    "location": "HAYWARDS HEATH",
    "postcode": "RH16 4QY",
    "address": "Fox Hill HAYWARDS HEATH RH16 4QY",
    "coordinates": "50.9838485, -0.0987201",
    "lat": 50.9838485,
    "lng": -0.0987201
  },
  {
    "name": "Fox & Hounds",
    "road": "Tinshill Road",
    "location": "LEEDS",
    "postcode": "LS16 7BT",
    "address": "Tinshill Road LEEDS LS16 7BT",
    "coordinates": "53.8489746, -1.6286947",
    "lat": 53.8489746,
    "lng": -1.6286947
  },
  {
    "name": "Fox & Hounds",
    "road": "Grantham Road",
    "location": "GRANTHAM",
    "postcode": "NG33 4AB",
    "address": "Grantham Road GRANTHAM NG33 4AB",
    "coordinates": "52.8912823, -0.5760952",
    "lat": 52.8912823,
    "lng": -0.5760952
  },
  {
    "name": "Friendly Forester",
    "road": "1 Martongate",
    "location": "BRIDLINGTON",
    "postcode": "YO16 6YS",
    "address": "1 Martongate BRIDLINGTON YO16 6YS",
    "coordinates": "54.0990234, -0.186827",
    "lat": 54.0990234,
    "lng": -0.186827
  },
  {
    "name": "Frogshole Farm",
    "road": "Maidenbower Drive",
    "location": "Crawley , WEST SUSSEX",
    "postcode": "RH10 7QF",
    "address": "Maidenbower Drive Crawley , WEST SUSSEX RH10 7QF",
    "coordinates": "51.1088015, -0.1486041",
    "lat": 51.1088015,
    "lng": -0.1486041
  },
  {
    "name": "Gardeners Arms",
    "road": "35 Cottingham Road",
    "location": "HULL",
    "postcode": "HU5 2PP",
    "address": "35 Cottingham Road HULL HU5 2PP",
    "coordinates": "53.76831199999999, -0.3566025",
    "lat": 53.768312,
    "lng": -0.3566025
  },
  {
    "name": "Gate",
    "road": "Rickmansworth Road",
    "location": "NORTHWOOD",
    "postcode": "HA6 2RH",
    "address": "Rickmansworth Road NORTHWOOD HA6 2RH",
    "coordinates": "51.6146384, -0.4384156",
    "lat": 51.6146384,
    "lng": -0.4384156
  },
  {
    "name": "Gate Inn",
    "road": "Church Street",
    "location": "MEXBOROUGH",
    "postcode": "S64 8DQ",
    "address": "Church Street MEXBOROUGH S64 8DQ",
    "coordinates": "53.4885287, -1.3241016",
    "lat": 53.4885287,
    "lng": -1.3241016
  },
  {
    "name": "General Roy",
    "road": "Poplar Way",
    "location": "FELTHAM",
    "postcode": "TW13 7AB",
    "address": "Poplar Way FELTHAM TW13 7AB",
    "coordinates": "51.4393219, -0.411958",
    "lat": 51.4393219,
    "lng": -0.411958
  },
  {
    "name": "George",
    "road": "George Road",
    "location": "OLDBURY",
    "postcode": "B68 9LN",
    "address": "George Road OLDBURY B68 9LN",
    "coordinates": "52.4772974, -1.9990379",
    "lat": 52.4772974,
    "lng": -1.9990379
  },
  {
    "name": "George",
    "road": "Hever Court Road",
    "location": "GRAVESEND",
    "postcode": "DA12 5UQ",
    "address": "Hever Court Road GRAVESEND DA12 5UQ",
    "coordinates": "51.4112153, 0.3782015",
    "lat": 51.4112153,
    "lng": 0.3782015
  },
  {
    "name": "George Inn",
    "road": "111 High Street",
    "location": "BECKENHAM",
    "postcode": "BR3 1AG",
    "address": "111 High Street BECKENHAM BR3 1AG",
    "coordinates": "51.4072208, -0.0276324",
    "lat": 51.4072208,
    "lng": -0.0276324
  },
  {
    "name": "Giffard Park",
    "road": "Broadway Avenue",
    "location": "MILTON KEYNES",
    "postcode": "MK14 5QN",
    "address": "Broadway Avenue MILTON KEYNES MK14 5QN",
    "coordinates": "52.0738464, -0.746094",
    "lat": 52.0738464,
    "lng": -0.746094
  },
  {
    "name": "Golden Lion Fulham",
    "road": "57 Fulham High Street",
    "location": "LONDON",
    "postcode": "SW6 3JJ",
    "address": "57 Fulham High Street LONDON SW6 3JJ",
    "coordinates": "51.4698972, -0.2100167",
    "lat": 51.4698972,
    "lng": -0.2100167
  },
  {
    "name": "Granary",
    "road": "10 Kilmarnock Road",
    "location": "GLASGOW",
    "postcode": "G41 3NH",
    "address": "10 Kilmarnock Road GLASGOW G41 3NH",
    "coordinates": "55.8301423, -4.281740099999999",
    "lat": 55.8301423,
    "lng": -4.2817401
  },
  {
    "name": "Grange Hotel",
    "road": "225-227 Newcastle Road",
    "location": "SUNDERLAND",
    "postcode": "SR5 1NR",
    "address": "225-227 Newcastle Road SUNDERLAND SR5 1NR",
    "coordinates": "54.9257329, -1.3887673",
    "lat": 54.9257329,
    "lng": -1.3887673
  },
  {
    "name": "Grapes",
    "road": "22 Green Lane",
    "location": "LIVERPOOL",
    "postcode": "L23 1TJ",
    "address": "22 Green Lane LIVERPOOL L23 1TJ",
    "coordinates": "53.5013683, -3.002842",
    "lat": 53.5013683,
    "lng": -3.002842
  },
  {
    "name": "Greatfield",
    "road": "Caernavon Road",
    "location": "CHELTENHAM",
    "postcode": "GL51 3BW",
    "address": "Caernavon Road CHELTENHAM GL51 3BW",
    "coordinates": "51.8802689, -2.10683",
    "lat": 51.8802689,
    "lng": -2.10683
  },
  {
    "name": "Greave Dunning",
    "road": "73 Greasby Road",
    "location": "WIRRAL",
    "postcode": "CH49 3NF",
    "address": "73 Greasby Road WIRRAL CH49 3NF",
    "coordinates": "53.3767559, -3.1237273",
    "lat": 53.3767559,
    "lng": -3.1237273
  },
  {
    "name": "Green Dragon",
    "road": "51 Saturday Market",
    "location": "BEVERLEY",
    "postcode": "HU17 8AA",
    "address": "51 Saturday Market BEVERLEY HU17 8AA",
    "coordinates": "53.8424057, -0.4322969",
    "lat": 53.8424057,
    "lng": -0.4322969
  },
  {
    "name": "Green Man",
    "road": "High Street",
    "location": "BIRMINGHAM",
    "postcode": "B17 9NE",
    "address": "High Street BIRMINGHAM B17 9NE",
    "coordinates": "52.4605358, -1.9443206",
    "lat": 52.4605358,
    "lng": -1.9443206
  },
  {
    "name": "Green Man",
    "road": "168 Warwick Road",
    "location": "KENILWORTH",
    "postcode": "CV8 1HS",
    "address": "168 Warwick Road KENILWORTH CV8 1HS",
    "coordinates": "52.3375382, -1.5741534",
    "lat": 52.3375382,
    "lng": -1.5741534
  },
  {
    "name": "Grenadier",
    "road": "200 Hangleton Road",
    "location": "HOVE",
    "postcode": "BN3 7LT",
    "address": "200 Hangleton Road HOVE BN3 7LT",
    "coordinates": "50.8447192, -0.194518",
    "lat": 50.8447192,
    "lng": -0.194518
  },
  {
    "name": "Greville Arms",
    "road": "Cornyx Lane",
    "location": "SOLIHULL",
    "postcode": "B91 2RB",
    "address": "Cornyx Lane SOLIHULL B91 2RB",
    "coordinates": "52.421901, -1.7670635",
    "lat": 52.421901,
    "lng": -1.7670635
  },
  {
    "name": "Grosvenor",
    "road": "193 Humberston Road",
    "location": "CLEETHORPES",
    "postcode": "DN35 0PH",
    "address": "193 Humberston Road CLEETHORPES DN35 0PH",
    "coordinates": "53.5360644, -0.034542",
    "lat": 53.5360644,
    "lng": -0.034542
  },
  {
    "name": "Grove Inn",
    "road": "53 London Road",
    "location": "NEWARK",
    "postcode": "NG24 3AL",
    "address": "53 London Road NEWARK NG24 3AL",
    "coordinates": "53.0619533, -0.7878299999999999",
    "lat": 53.0619533,
    "lng": -0.78783
  },
  {
    "name": "Gryphon",
    "road": "Vera Avenue",
    "location": "LONDON",
    "postcode": "N21 1RE",
    "address": "Vera Avenue LONDON N21 1RE",
    "coordinates": "51.6425633, -0.0985101",
    "lat": 51.6425633,
    "lng": -0.0985101
  },
  {
    "name": "Haddon Hall Hotel",
    "road": "Haddon Hall Road",
    "location": "MANCHESTER",
    "postcode": "M43 6LB",
    "address": "Haddon Hall Road MANCHESTER M43 6LB",
    "coordinates": "53.4866379, -2.1644379",
    "lat": 53.4866379,
    "lng": -2.1644379
  },
  {
    "name": "Half Moon Inn",
    "road": "New Elvet",
    "location": "DURHAM",
    "postcode": "DH1 3AQ",
    "address": "New Elvet DURHAM DH1 3AQ",
    "coordinates": "54.7747642, -1.5718549",
    "lat": 54.7747642,
    "lng": -1.5718549
  },
  {
    "name": "Halfway House",
    "road": "Woolton Road",
    "location": "LIVERPOOL",
    "postcode": "L16 8NE",
    "address": "Woolton Road LIVERPOOL L16 8NE",
    "coordinates": "53.3904713, -2.8993673",
    "lat": 53.3904713,
    "lng": -2.8993673
  },
  {
    "name": "Hammer & Pincers",
    "road": "Ringinglow Road",
    "location": "SHEFFIELD",
    "postcode": "S11 7PW",
    "address": "Ringinglow Road SHEFFIELD S11 7PW",
    "coordinates": "53.3539766, -1.5287436",
    "lat": 53.3539766,
    "lng": -1.5287436
  },
  {
    "name": "Hancock",
    "road": "2a Hancock Street",
    "location": "NEWCASTLE UPON TYNE",
    "postcode": "NE2 4PU",
    "address": "2a Hancock Street NEWCASTLE UPON TYNE NE2 4PU",
    "coordinates": "54.9800021, -1.6113658",
    "lat": 54.9800021,
    "lng": -1.6113658
  },
  {
    "name": "Hardwick Arms",
    "road": "Chester Road",
    "location": "SUTTON COLDFIELD",
    "postcode": "B74 3DX",
    "address": "Chester Road SUTTON COLDFIELD B74 3DX",
    "coordinates": "52.5867729, -1.887772",
    "lat": 52.5867729,
    "lng": -1.887772
  },
  {
    "name": "Hare & Hounds",
    "road": "53 Liverpool Road North",
    "location": "LIVERPOOL",
    "postcode": "L31 2HF",
    "address": "53 Liverpool Road North LIVERPOOL L31 2HF",
    "coordinates": "53.5150748, -2.945672",
    "lat": 53.5150748,
    "lng": -2.945672
  },
  {
    "name": "Hare & Hounds",
    "road": "1 Golborne Road",
    "location": "WARRINGTON",
    "postcode": "WA3 2DP",
    "address": "1 Golborne Road WARRINGTON WA3 2DP",
    "coordinates": "53.4750216, -2.5817697",
    "lat": 53.4750216,
    "lng": -2.5817697
  },
  {
    "name": "Hare & Hounds",
    "road": "Kingsbury Road",
    "location": "BIRMINGHAM",
    "postcode": "B76 9DD",
    "address": "Kingsbury Road BIRMINGHAM B76 9DD",
    "coordinates": "52.5290693, -1.7653886",
    "lat": 52.5290693,
    "lng": -1.7653886
  },
  {
    "name": "Hare & Hounds",
    "road": "1-7 Church Lane",
    "location": "SHEFFIELD",
    "postcode": "S17 3GR",
    "address": "1-7 Church Lane SHEFFIELD S17 3GR",
    "coordinates": "53.326334, -1.5394083",
    "lat": 53.326334,
    "lng": -1.5394083
  },
  {
    "name": "Harrow",
    "road": "130 Hornchurch Road",
    "location": "ESSEX",
    "postcode": "RM11 1DP",
    "address": "130 Hornchurch Road ESSEX RM11 1DP",
    "coordinates": "51.5649452, 0.2044632",
    "lat": 51.5649452,
    "lng": 0.2044632
  },
  {
    "name": "Haymoor",
    "road": "18 Neighbourhood Centre",
    "location": "POOLE",
    "postcode": "BH17 9DW",
    "address": "18 Neighbourhood Centre POOLE BH17 9DW",
    "coordinates": "50.7515266, -1.9666079",
    "lat": 50.7515266,
    "lng": -1.9666079
  },
  {
    "name": "Haywain",
    "road": "Constable Road",
    "location": "ST. IVES",
    "postcode": "PE27 3EP",
    "address": "Constable Road ST. IVES PE27 3EP",
    "coordinates": "52.3428332, -0.0757263",
    "lat": 52.3428332,
    "lng": -0.0757263
  },
  {
    "name": "Haywain",
    "road": "Sandy Lane",
    "location": "CALDICOTT",
    "postcode": "NP26 4NE",
    "address": "Sandy Lane CALDICOTT NP26 4NE",
    "coordinates": "51.5944531, -2.7553096",
    "lat": 51.5944531,
    "lng": -2.7553096
  },
  {
    "name": "Hazelwell",
    "road": "Pineapple Road",
    "location": "BIRMINGHAM",
    "postcode": "B30 2RS",
    "address": "Pineapple Road BIRMINGHAM B30 2RS",
    "coordinates": "52.431328, -1.9081896",
    "lat": 52.431328,
    "lng": -1.9081896
  },
  {
    "name": "Headingley Taps",
    "road": "Bennett Road Car Park",
    "location": "LEEDS",
    "postcode": "LS6 3HG",
    "address": "Bennett Road Car Park LEEDS LS6 3HG",
    "coordinates": "53.820475, -1.5785629",
    "lat": 53.820475,
    "lng": -1.5785629
  },
  {
    "name": "Hemlock Stone",
    "road": "Bramcote Lane",
    "location": "NOTTINGHAM",
    "postcode": "NG8 2QQ",
    "address": "Bramcote Lane NOTTINGHAM NG8 2QQ",
    "coordinates": "52.9476989, -1.2296938",
    "lat": 52.9476989,
    "lng": -1.2296938
  },
  {
    "name": "Henry Boddington",
    "road": "219 Bolton Road",
    "location": "SALFORD",
    "postcode": "M27 8TG",
    "address": "219 Bolton Road SALFORD M27 8TG",
    "coordinates": "53.5080666, -2.3126961",
    "lat": 53.5080666,
    "lng": -2.3126961
  },
  {
    "name": "Highfield",
    "road": "Highfield Road",
    "location": "BLACKPOOL",
    "postcode": "FY4 3LA",
    "address": "Highfield Road BLACKPOOL FY4 3LA",
    "coordinates": "53.7888398, -3.0263364",
    "lat": 53.7888398,
    "lng": -3.0263364
  },
  {
    "name": "Highfield",
    "road": "138 Newbold Road",
    "location": "CHESTERFIELD",
    "postcode": "S41 7AA",
    "address": "138 Newbold Road CHESTERFIELD S41 7AA",
    "coordinates": "53.2457196, -1.4425609",
    "lat": 53.2457196,
    "lng": -1.4425609
  },
  {
    "name": "Highfield Restaurant",
    "road": "Southport Road",
    "location": "PRESTON",
    "postcode": "PR26 9JB",
    "address": "Southport Road PRESTON PR26 9JB",
    "coordinates": "53.6636494, -2.7504326",
    "lat": 53.6636494,
    "lng": -2.7504326
  },
  {
    "name": "Highwayman",
    "road": "Whickham Highway",
    "location": "GATESHEAD",
    "postcode": "NE11 9QJ",
    "address": "Whickham Highway GATESHEAD NE11 9QJ",
    "coordinates": "54.9438049, -1.652062",
    "lat": 54.9438049,
    "lng": -1.652062
  },
  {
    "name": "Hillfoot",
    "road": "Hillfoot Road",
    "location": "LIVERPOOL",
    "postcode": "L25 0NB",
    "address": "Hillfoot Road LIVERPOOL L25 0NB",
    "coordinates": "53.3604437, -2.863464",
    "lat": 53.3604437,
    "lng": -2.863464
  },
  {
    "name": "Hind",
    "road": "East Bawtry Road",
    "location": "S YORKSHIRE",
    "postcode": "S60 4ET",
    "address": "East Bawtry Road S YORKSHIRE S60 4ET",
    "coordinates": "53.4071363, -1.332716",
    "lat": 53.4071363,
    "lng": -1.332716
  },
  {
    "name": "Hole In The Wall",
    "road": "1 Shoplatch",
    "location": "SHREWSBURY",
    "postcode": "SY1 1HF",
    "address": "1 Shoplatch SHREWSBURY SY1 1HF",
    "coordinates": "52.7077651, -2.7549392",
    "lat": 52.7077651,
    "lng": -2.7549392
  },
  {
    "name": "Hollybrook",
    "road": "Hollybrook Way",
    "location": "DERBY",
    "postcode": "DE23 3TZ",
    "address": "Hollybrook Way DERBY DE23 3TZ",
    "coordinates": "52.8921435, -1.5314256",
    "lat": 52.8921435,
    "lng": -1.5314256
  },
  {
    "name": "Hollymere",
    "road": "Leechmere Road",
    "location": "SUNDERLAND",
    "postcode": "SR2 9DL",
    "address": "Leechmere Road SUNDERLAND SR2 9DL",
    "coordinates": "54.884256, -1.3852768",
    "lat": 54.884256,
    "lng": -1.3852768
  },
  {
    "name": "Holyhead",
    "road": "Holyhead Road",
    "location": "COVENTRY",
    "postcode": "CV5 8JN",
    "address": "Holyhead Road COVENTRY CV5 8JN",
    "coordinates": "52.4143771, -1.5328709",
    "lat": 52.4143771,
    "lng": -1.5328709
  },
  {
    "name": "Homestead",
    "road": "Wickersley Road",
    "location": "ROTHERHAM",
    "postcode": "S60 3PJ",
    "address": "Wickersley Road ROTHERHAM S60 3PJ",
    "coordinates": "53.4209564, -1.3341465",
    "lat": 53.4209564,
    "lng": -1.3341465
  },
  {
    "name": "Hop Pole Hotel",
    "road": "Kingston Road",
    "location": "HULL",
    "postcode": "HU10 6LN",
    "address": "Kingston Road HULL HU10 6LN",
    "coordinates": "53.7547762, -0.4369578",
    "lat": 53.7547762,
    "lng": -0.4369578
  },
  {
    "name": "Horse & Jockey",
    "road": "90 Birmingham Road",
    "location": "SUTTON COLDFIELD",
    "postcode": "B72 1LY",
    "address": "90 Birmingham Road SUTTON COLDFIELD B72 1LY",
    "coordinates": "52.5539291, -1.8282147",
    "lat": 52.5539291,
    "lng": -1.8282147
  },
  {
    "name": "Horse & Jockey",
    "road": "Buckingham Road",
    "location": "AYLESBURY",
    "postcode": "HP19 9QL",
    "address": "Buckingham Road AYLESBURY HP19 9QL",
    "coordinates": "51.8285756, -0.8146225",
    "lat": 51.8285756,
    "lng": -0.8146225
  },
  {
    "name": "Horse & Jockey",
    "road": "Durham Road",
    "location": "STOCKTON ON TEES",
    "postcode": "TS19 8HH",
    "address": "Durham Road STOCKTON ON TEES TS19 8HH",
    "coordinates": "54.5908231, -1.3514005",
    "lat": 54.5908231,
    "lng": -1.3514005
  },
  {
    "name": "Horseshoe Bar",
    "road": "17-19 Drury Street",
    "location": "GLASGOW",
    "postcode": "G2 5AE",
    "address": "17-19 Drury Street GLASGOW G2 5AE",
    "coordinates": "55.86087149999999, -4.2563151",
    "lat": 55.8608715,
    "lng": -4.2563151
  },
  {
    "name": "Hunters Tryst",
    "road": "97 Oxgangs Road",
    "location": "EDINBURGH",
    "postcode": "EH13 9NG",
    "address": "97 Oxgangs Road EDINBURGH EH13 9NG",
    "coordinates": "55.9021485, -3.2210421",
    "lat": 55.9021485,
    "lng": -3.2210421
  },
  {
    "name": "Hunting Lodge",
    "road": "Earsdon Road",
    "location": "WHITLEY BAY",
    "postcode": "NE25 9SX",
    "address": "Earsdon Road WHITLEY BAY NE25 9SX",
    "coordinates": "55.0383562, -1.4729614",
    "lat": 55.0383562,
    "lng": -1.4729614
  },
  {
    "name": "Huntsman & Hounds",
    "road": "Ockendon Road",
    "location": "ESSEX",
    "postcode": "RM14 2DN",
    "address": "Ockendon Road ESSEX RM14 2DN",
    "coordinates": "51.5421402, 0.2745703",
    "lat": 51.5421402,
    "lng": 0.2745703
  },
  {
    "name": "Iford Bridge Tavern",
    "road": "Old Bridge Road",
    "location": "BOURNEMOUTH",
    "postcode": "BH6 5RG",
    "address": "Old Bridge Road BOURNEMOUTH BH6 5RG",
    "coordinates": "50.7406978, -1.8063676",
    "lat": 50.7406978,
    "lng": -1.8063676
  },
  {
    "name": "Journeys End",
    "road": "262 Clay Lane",
    "location": "BIRMINGHAM",
    "postcode": "B26 1EH",
    "address": "262 Clay Lane BIRMINGHAM B26 1EH",
    "coordinates": "52.45462029999999, -1.8090397",
    "lat": 52.4546203,
    "lng": -1.8090397
  },
  {
    "name": "Jubilee Inn",
    "road": "350 St. Nicholas Drive",
    "location": "GRIMSBY",
    "postcode": "DN37 9SF",
    "address": "350 St. Nicholas Drive GRIMSBY DN37 9SF",
    "coordinates": "53.5649101, -0.1370169",
    "lat": 53.5649101,
    "lng": -0.1370169
  },
  {
    "name": "Junction",
    "road": "Gayton Hall",
    "location": "HARROW",
    "postcode": "HA1 2DH",
    "address": "Gayton Hall HARROW HA1 2DH",
    "coordinates": "51.5796499, -0.3325388",
    "lat": 51.5796499,
    "lng": -0.3325388
  },
  {
    "name": "Justinlees Inn",
    "road": "1-5 Dalhousie Road",
    "location": "DALKEITH",
    "postcode": "EH22 3AT",
    "address": "1-5 Dalhousie Road DALKEITH EH22 3AT",
    "coordinates": "55.8882291, -3.0801387",
    "lat": 55.8882291,
    "lng": -3.0801387
  },
  {
    "name": "King & Miller",
    "road": "North Road",
    "location": "RETFORD",
    "postcode": "DN22 7XW",
    "address": "North Road RETFORD DN22 7XW",
    "coordinates": "53.3304574, -0.9624462",
    "lat": 53.3304574,
    "lng": -0.9624462
  },
  {
    "name": "King Edward VII",
    "road": "47 Old Cheltenham Road",
    "location": "GLOUCESTER",
    "postcode": "GL2 0AN",
    "address": "47 Old Cheltenham Road GLOUCESTER GL2 0AN",
    "coordinates": "51.8755997, -2.2091813",
    "lat": 51.8755997,
    "lng": -2.2091813
  },
  {
    "name": "King Henry",
    "road": "Bawtry Road",
    "location": "ROTHERHAM",
    "postcode": "S66 2TW",
    "address": "Bawtry Road ROTHERHAM S66 2TW",
    "coordinates": "53.4238243, -1.2628442",
    "lat": 53.4238243,
    "lng": -1.2628442
  },
  {
    "name": "King William IV",
    "road": "185 Sandridge Road",
    "location": "ST ALBANS",
    "postcode": "AL1 4AH",
    "address": "185 Sandridge Road ST ALBANS AL1 4AH",
    "coordinates": "51.7663269, -0.3227154",
    "lat": 51.7663269,
    "lng": -0.3227154
  },
  {
    "name": "Kings Fairway",
    "road": "91 Fordbridge Road",
    "location": "MIDDLESEX",
    "postcode": "TW15 2SS",
    "address": "91 Fordbridge Road MIDDLESEX TW15 2SS",
    "coordinates": "51.4285372, -0.4694856000000001",
    "lat": 51.4285372,
    "lng": -0.4694856
  },
  {
    "name": "Kings Head",
    "road": "High Street",
    "location": "GRIMSBY",
    "postcode": "DN37 0LL",
    "address": "High Street GRIMSBY DN37 0LL",
    "coordinates": "53.5167973, -0.1012335",
    "lat": 53.5167973,
    "lng": -0.1012335
  },
  {
    "name": "Lamb Inn",
    "road": "36 Windsor Place",
    "location": "BRISTOL",
    "postcode": "BS16 9DD",
    "address": "36 Windsor Place BRISTOL BS16 9DD",
    "coordinates": "51.4868859, -2.4870136",
    "lat": 51.4868859,
    "lng": -2.4870136
  },
  {
    "name": "Lauders",
    "road": "76 Sauchiehall Street",
    "location": "GLASGOW",
    "postcode": "G2 3DE",
    "address": "76 Sauchiehall Street GLASGOW G2 3DE",
    "coordinates": "55.8646745, -4.2557276",
    "lat": 55.8646745,
    "lng": -4.2557276
  },
  {
    "name": "Leicester Arms",
    "road": "531 Dunstable Road",
    "location": "LUTON",
    "postcode": "LU4 8QW",
    "address": "531 Dunstable Road LUTON LU4 8QW",
    "coordinates": "51.8919709, -0.4601198",
    "lat": 51.8919709,
    "lng": -0.4601198
  },
  {
    "name": "Lock Keeper",
    "road": "4 Mill Bank",
    "location": "MANCHESTER",
    "postcode": "M26 1AJ",
    "address": "4 Mill Bank MANCHESTER M26 1AJ",
    "coordinates": "53.55809929999999, -2.3237028",
    "lat": 53.5580993,
    "lng": -2.3237028
  },
  {
    "name": "Longhorn",
    "road": "Sutton Road",
    "location": "WALSALL",
    "postcode": "WS5 3AR",
    "address": "Sutton Road WALSALL WS5 3AR",
    "coordinates": "52.5785469, -1.9453421",
    "lat": 52.5785469,
    "lng": -1.9453421
  },
  {
    "name": "Lord Lounsdale",
    "road": "Lounsdale Road",
    "location": "PAISLEY",
    "postcode": "PA2 9DU",
    "address": "Lounsdale Road PAISLEY PA2 9DU",
    "coordinates": "55.8356546, -4.4465722",
    "lat": 55.8356546,
    "lng": -4.4465722
  },
  {
    "name": "Lyppard Grange",
    "road": "Ankerage Green",
    "location": "WORCESTER",
    "postcode": "WR4 0DZ",
    "address": "Ankerage Green WORCESTER WR4 0DZ",
    "coordinates": "52.200266, -2.1771532",
    "lat": 52.200266,
    "lng": -2.1771532
  },
  {
    "name": "Man In Space",
    "road": "New Inn Lane",
    "location": "STOKE ON TRENT",
    "postcode": "ST4 8PZ",
    "address": "New Inn Lane STOKE ON TRENT ST4 8PZ",
    "coordinates": "52.9712163, -2.1909175",
    "lat": 52.9712163,
    "lng": -2.1909175
  },
  {
    "name": "Man on the Moon",
    "road": "Redditch Road",
    "location": "BIRMINGHAM",
    "postcode": "B38 8LR",
    "address": "Redditch Road BIRMINGHAM B38 8LR",
    "coordinates": "52.3939133, -1.9534307",
    "lat": 52.3939133,
    "lng": -1.9534307
  },
  {
    "name": "Manor",
    "road": "Newtons Road",
    "location": "WESTON-SUPER-MARE",
    "postcode": "BS22 9LP",
    "address": "Newtons Road WESTON-SUPER-MARE BS22 9LP",
    "coordinates": "51.3688932, -2.9320721",
    "lat": 51.3688932,
    "lng": -2.9320721
  },
  {
    "name": "Manor Farm",
    "road": "194 Willerby Road",
    "location": "HULL",
    "postcode": "HU5 5JW",
    "address": "194 Willerby Road HULL HU5 5JW",
    "coordinates": "53.7531386, -0.4077922",
    "lat": 53.7531386,
    "lng": -0.4077922
  },
  {
    "name": "Markeaton Hotel",
    "road": "Kedleston Road",
    "location": "DERBY",
    "postcode": "DE22 2TF",
    "address": "Kedleston Road DERBY DE22 2TF",
    "coordinates": "52.9430508, -1.5032599",
    "lat": 52.9430508,
    "lng": -1.5032599
  },
  {
    "name": "Marmalade Pot",
    "road": "Saturn Avenue",
    "location": "PAISLEY",
    "postcode": "PA1 2BH",
    "address": "Saturn Avenue PAISLEY PA1 2BH",
    "coordinates": "55.8450109, -4.4714872",
    "lat": 55.8450109,
    "lng": -4.4714872
  },
  {
    "name": "Marquis Arms",
    "road": "Carmarthen Road",
    "location": "SWANSEA",
    "postcode": "SA5 4AA",
    "address": "Carmarthen Road SWANSEA SA5 4AA",
    "coordinates": "51.6414119, -3.9777931",
    "lat": 51.6414119,
    "lng": -3.9777931
  },
  {
    "name": "Marston Green Tavern",
    "road": "Station Road",
    "location": "BIRMINGHAM",
    "postcode": "B37 7AS",
    "address": "Station Road BIRMINGHAM B37 7AS",
    "coordinates": "52.4676596, -1.7532072",
    "lat": 52.4676596,
    "lng": -1.7532072
  },
  {
    "name": "Masons Arms",
    "road": "173 High Street",
    "location": "SOLIHULL",
    "postcode": "B91 3ST",
    "address": "173 High Street SOLIHULL B91 3ST",
    "coordinates": "52.4119564, -1.7762203",
    "lat": 52.4119564,
    "lng": -1.7762203
  },
  {
    "name": "Matapan (was Beacon Tree)",
    "road": "Green Lane",
    "location": "DAGENHAM",
    "postcode": "RM8 1DJ",
    "address": "Green Lane DAGENHAM RM8 1DJ",
    "coordinates": "51.5612702, 0.141002",
    "lat": 51.5612702,
    "lng": 0.141002
  },
  {
    "name": "Maudslay",
    "road": "190 Allesley Old Road",
    "location": "COVENTRY",
    "postcode": "CV5 8GJ",
    "address": "190 Allesley Old Road COVENTRY CV5 8GJ",
    "coordinates": "52.4087153, -1.5390753",
    "lat": 52.4087153,
    "lng": -1.5390753
  },
  {
    "name": "Mawney Arms",
    "road": "44 Mawney Road",
    "location": "ROMFORD",
    "postcode": "RM7 7HT",
    "address": "44 Mawney Road ROMFORD RM7 7HT",
    "coordinates": "51.5790178, 0.1714696",
    "lat": 51.5790178,
    "lng": 0.1714696
  },
  {
    "name": "Maxwells",
    "road": "Maxwell Drive",
    "location": "LOUGHBOROUGH",
    "postcode": "LE11 4RZ",
    "address": "Maxwell Drive LOUGHBOROUGH LE11 4RZ",
    "coordinates": "52.7793304, -1.2422991",
    "lat": 52.7793304,
    "lng": -1.2422991
  },
  {
    "name": "Meadow Lark",
    "road": "Dibdale Road",
    "location": "DUDLEY",
    "postcode": "DY1 2RR",
    "address": "Dibdale Road DUDLEY DY1 2RR",
    "coordinates": "52.5179568, -2.1099214",
    "lat": 52.5179568,
    "lng": -2.1099214
  },
  {
    "name": "Mere Park Hotel",
    "road": "Preston Old Road",
    "location": "BLACKPOOL",
    "postcode": "FY3 9SP",
    "address": "Preston Old Road BLACKPOOL FY3 9SP",
    "coordinates": "53.8055593, -3.0140082",
    "lat": 53.8055593,
    "lng": -3.0140082
  },
  {
    "name": "Merebrook",
    "road": "Greenfields Avenue",
    "location": "WIRRAL",
    "postcode": "CH62 6DD",
    "address": "Greenfields Avenue WIRRAL CH62 6DD",
    "coordinates": "53.3248687, -2.9868252",
    "lat": 53.3248687,
    "lng": -2.9868252
  },
  {
    "name": "Merry Hill",
    "road": "Trysull Road",
    "location": "WOLVERHAMPTON",
    "postcode": "WV3 7LB",
    "address": "Trysull Road WOLVERHAMPTON WV3 7LB",
    "coordinates": "52.5712689, -2.1701148",
    "lat": 52.5712689,
    "lng": -2.1701148
  },
  {
    "name": "Mill",
    "road": "58-62 High Street",
    "location": "KINGSTON UPON THAMES",
    "postcode": "KT1 1HN",
    "address": "58-62 High Street KINGSTON UPON THAMES KT1 1HN",
    "coordinates": "51.40701920000001, -0.3082039",
    "lat": 51.4070192,
    "lng": -0.3082039
  },
  {
    "name": "Mill",
    "road": "602 Holderness Road",
    "location": "HULL",
    "postcode": "HU9 3EU",
    "address": "602 Holderness Road HULL HU9 3EU",
    "coordinates": "53.7622832, -0.2976393",
    "lat": 53.7622832,
    "lng": -0.2976393
  },
  {
    "name": "Monkseaton Arms",
    "road": "Front Street",
    "location": "WHITLEY BAY",
    "postcode": "NE25 8DP",
    "address": "Front Street WHITLEY BAY NE25 8DP",
    "coordinates": "55.0417098, -1.4613847",
    "lat": 55.0417098,
    "lng": -1.4613847
  },
  {
    "name": "Moorland Inn",
    "road": "Moorland Road",
    "location": "STOKE-ON-TRENT",
    "postcode": "ST6 1JP",
    "address": "Moorland Road STOKE-ON-TRENT ST6 1JP",
    "coordinates": "53.0483897, -2.1814879",
    "lat": 53.0483897,
    "lng": -2.1814879
  },
  {
    "name": "Moreton Hall",
    "road": "Lawson Place",
    "location": "BURY ST EDMUNDS",
    "postcode": "IP32 7EW",
    "address": "Lawson Place BURY ST EDMUNDS IP32 7EW",
    "coordinates": "52.2447694, 0.742328",
    "lat": 52.2447694,
    "lng": 0.742328
  },
  {
    "name": "Morris Dancers",
    "road": "Byron Road",
    "location": "COLNE",
    "postcode": "BB8 0BH",
    "address": "Byron Road COLNE BB8 0BH",
    "coordinates": "53.8599078, -2.1534543",
    "lat": 53.8599078,
    "lng": -2.1534543
  },
  {
    "name": "Myvod",
    "road": "62 Park Lane",
    "location": "WEDNESBURY",
    "postcode": "WS10 9PS",
    "address": "62 Park Lane WEDNESBURY WS10 9PS",
    "coordinates": "52.5630795, -2.015464",
    "lat": 52.5630795,
    "lng": -2.015464
  },
  {
    "name": "National",
    "road": "19 National Avenue",
    "location": "HULL",
    "postcode": "HU5 4HP",
    "address": "19 National Avenue HULL HU5 4HP",
    "coordinates": "53.7620291, -0.3826689",
    "lat": 53.7620291,
    "lng": -0.3826689
  },
  {
    "name": "Newlands",
    "road": "Tile Hill Lane",
    "location": "COVENTRY",
    "postcode": "CV4 9DJ",
    "address": "Tile Hill Lane COVENTRY CV4 9DJ",
    "coordinates": "52.4027451, -1.5678974",
    "lat": 52.4027451,
    "lng": -1.5678974
  },
  {
    "name": "Newton Arms",
    "road": "Staining Road",
    "location": "BLACKPOOL",
    "postcode": "FY3 0AJ",
    "address": "Staining Road BLACKPOOL FY3 0AJ",
    "coordinates": "53.8260012, -3.004916",
    "lat": 53.8260012,
    "lng": -3.004916
  },
  {
    "name": "Nine Giants",
    "road": "Thornhill Road",
    "location": "CARDIFF",
    "postcode": "CF14 6PE",
    "address": "Thornhill Road CARDIFF CF14 6PE",
    "coordinates": "51.5275721, -3.2027819",
    "lat": 51.5275721,
    "lng": -3.2027819
  },
  {
    "name": "Norland",
    "road": "First Lane",
    "location": "HESSLE",
    "postcode": "HU13 9ED",
    "address": "First Lane HESSLE HU13 9ED",
    "coordinates": "53.7251383, -0.4226436",
    "lat": 53.7251383,
    "lng": -0.4226436
  },
  {
    "name": "North Star",
    "road": "271 Hook Road",
    "location": "CHESSINGTON",
    "postcode": "KT9 1EQ",
    "address": "271 Hook Road CHESSINGTON KT9 1EQ",
    "coordinates": "51.3709609, -0.3055076",
    "lat": 51.3709609,
    "lng": -0.3055076
  },
  {
    "name": "North Star",
    "road": "Littlehampton Road",
    "location": "WORTHING",
    "postcode": "BN13 1QY",
    "address": "Littlehampton Road WORTHING BN13 1QY",
    "coordinates": "50.8287304, -0.4074068",
    "lat": 50.8287304,
    "lng": -0.4074068
  },
  {
    "name": "Norton",
    "road": "337 Meadowhead",
    "location": "SHEFFIELD",
    "postcode": "S8 7UP",
    "address": "337 Meadowhead SHEFFIELD S8 7UP",
    "coordinates": "53.3274378, -1.4734218",
    "lat": 53.3274378,
    "lng": -1.4734218
  },
  {
    "name": "Nugget",
    "road": "Coundon Green",
    "location": "COVENTRY",
    "postcode": "CV6 2AL",
    "address": "Coundon Green COVENTRY CV6 2AL",
    "coordinates": "52.4329628, -1.5404053",
    "lat": 52.4329628,
    "lng": -1.5404053
  },
  {
    "name": "Nursery Tavern",
    "road": "276 Ecclesall Road",
    "location": "SHEFFIELD",
    "postcode": "S11 8PE",
    "address": "276 Ecclesall Road SHEFFIELD S11 8PE",
    "coordinates": "53.3715798, -1.4889767",
    "lat": 53.3715798,
    "lng": -1.4889767
  },
  {
    "name": "Nut & Squirrel",
    "road": "1 Barnsdale Drive",
    "location": "MILTON KEYNES",
    "postcode": "MK4 4DD",
    "address": "1 Barnsdale Drive MILTON KEYNES MK4 4DD",
    "coordinates": "52.003184, -0.7934036",
    "lat": 52.003184,
    "lng": -0.7934036
  },
  {
    "name": "Oak",
    "road": "Lodge Lane",
    "location": "GRAYS",
    "postcode": "RM17 5RZ",
    "address": "Lodge Lane GRAYS RM17 5RZ",
    "coordinates": "51.4892512, 0.3392892",
    "lat": 51.4892512,
    "lng": 0.3392892
  },
  {
    "name": "Oak & Acorn",
    "road": "Danebridge Crescent",
    "location": "DERBY",
    "postcode": "DE21 2HT",
    "address": "Danebridge Crescent DERBY DE21 2HT",
    "coordinates": "52.9408622, -1.4310844",
    "lat": 52.9408622,
    "lng": -1.4310844
  },
  {
    "name": "Odd Bottle",
    "road": "260 Wold Road",
    "location": "HULL",
    "postcode": "HU5 5QQ",
    "address": "260 Wold Road HULL HU5 5QQ",
    "coordinates": "53.7574894, -0.4097946",
    "lat": 53.7574894,
    "lng": -0.4097946
  },
  {
    "name": "Old Ball",
    "road": "Brownberrie Lane",
    "location": "LEEDS",
    "postcode": "LS18 5SB",
    "address": "Brownberrie Lane LEEDS LS18 5SB",
    "coordinates": "53.8476338, -1.6365482",
    "lat": 53.8476338,
    "lng": -1.6365482
  },
  {
    "name": "Old Hare & Hounds",
    "road": "426 Lickey Road",
    "location": "BIRMINGHAM",
    "postcode": "B45 8UU",
    "address": "426 Lickey Road BIRMINGHAM B45 8UU",
    "coordinates": "52.3843825, -2.002793",
    "lat": 52.3843825,
    "lng": -2.002793
  },
  {
    "name": "Old Horns",
    "road": "Queslett Road",
    "location": "BIRMINGHAM",
    "postcode": "B43 7EQ",
    "address": "Queslett Road BIRMINGHAM B43 7EQ",
    "coordinates": "52.5533455, -1.9079533",
    "lat": 52.5533455,
    "lng": -1.9079533
  },
  {
    "name": "Old Maypole",
    "road": "Fencepiece Road",
    "location": "ILFORD",
    "postcode": "IG6 2NG",
    "address": "Fencepiece Road ILFORD IG6 2NG",
    "coordinates": "51.6015071, 0.0843654",
    "lat": 51.6015071,
    "lng": 0.0843654
  },
  {
    "name": "Old Red Lion",
    "road": "London Road",
    "location": "CREWE",
    "postcode": "CW4 7AQ",
    "address": "London Road CREWE CW4 7AQ",
    "coordinates": "53.2016349, -2.3575351",
    "lat": 53.2016349,
    "lng": -2.3575351
  },
  {
    "name": "Old Ship",
    "road": "54 Marine Parade East",
    "location": "LEE-ON-THE-SOLENT",
    "postcode": "PO13 9BW",
    "address": "54 Marine Parade East LEE-ON-THE-SOLENT PO13 9BW",
    "coordinates": "50.79660070000001, -1.1973105",
    "lat": 50.7966007,
    "lng": -1.1973105
  },
  {
    "name": "Old White Horse",
    "road": "South Road",
    "location": "STOURBRIDGE",
    "postcode": "DY8 3XZ",
    "address": "South Road STOURBRIDGE DY8 3XZ",
    "coordinates": "52.4509129, -2.1532842",
    "lat": 52.4509129,
    "lng": -2.1532842
  },
  {
    "name": "Olton Tavern",
    "road": "Lode Lane",
    "location": "BIRMINGHAM",
    "postcode": "B92 8NU",
    "address": "Lode Lane BIRMINGHAM B92 8NU",
    "coordinates": "52.4385199, -1.7830959",
    "lat": 52.4385199,
    "lng": -1.7830959
  },
  {
    "name": "O'Neill's Aberdeen",
    "road": "9-10 Back Wynd",
    "location": "ABERDEEN",
    "postcode": "AB10 1JN",
    "address": "9-10 Back Wynd ABERDEEN AB10 1JN",
    "coordinates": "57.1468149, -2.1001978",
    "lat": 57.1468149,
    "lng": -2.1001978
  },
  {
    "name": "O'Neill's Beckenham",
    "road": "9 High Street",
    "location": "BECKENHAM",
    "postcode": "BR3 1AZ",
    "address": "9 High Street BECKENHAM BR3 1AZ",
    "coordinates": "51.4104934, -0.0246608",
    "lat": 51.4104934,
    "lng": -0.0246608
  },
  {
    "name": "O'Neill's Birmingham",
    "road": "Broad Street",
    "location": "BIRMINGHAM",
    "postcode": "B1 2HG",
    "address": "Broad Street BIRMINGHAM B1 2HG",
    "coordinates": "52.476565, -1.9124988",
    "lat": 52.476565,
    "lng": -1.9124988
  },
  {
    "name": "O'Neill's Blackheath",
    "road": "52 Tranquil Vale",
    "location": "BLACKHEATH",
    "postcode": "SE3 0BH",
    "address": "52 Tranquil Vale BLACKHEATH SE3 0BH",
    "coordinates": "51.4667361, 0.0078501",
    "lat": 51.4667361,
    "lng": 0.0078501
  },
  {
    "name": "O'Neill's Bournemouth",
    "road": "231 Old Christchurch Road",
    "location": "BOURNEMOUTH",
    "postcode": "BH1 1JZ",
    "address": "231 Old Christchurch Road BOURNEMOUTH BH1 1JZ",
    "coordinates": "50.7221276, -1.8672379",
    "lat": 50.7221276,
    "lng": -1.8672379
  },
  {
    "name": "O'Neill's Bristol",
    "road": "7-9 Baldwin St",
    "location": "BRISTOL",
    "postcode": "BS1 1RU",
    "address": "7-9 Baldwin St BRISTOL BS1 1RU",
    "coordinates": "51.45350269999999, -2.5962376",
    "lat": 51.4535027,
    "lng": -2.5962376
  },
  {
    "name": "O'Neill's Bromley",
    "road": "27-29 East Street",
    "location": "BROMLEY",
    "postcode": "BR1 1QE",
    "address": "27-29 East Street BROMLEY BR1 1QE",
    "coordinates": "51.4071046, 0.0156821",
    "lat": 51.4071046,
    "lng": 0.0156821
  },
  {
    "name": "O'Neill's Cardiff",
    "road": "St Mary Street",
    "location": "CARDIFF",
    "postcode": "CF10 1DW",
    "address": "St Mary Street CARDIFF CF10 1DW",
    "coordinates": "51.4779285, -3.1776552",
    "lat": 51.4779285,
    "lng": -3.1776552
  },
  {
    "name": "O'Neill's Clapham",
    "road": "196 Clapham High Street",
    "location": "CLAPHAM",
    "postcode": "SW4 7UD",
    "address": "196 Clapham High Street CLAPHAM SW4 7UD",
    "coordinates": "51.4621384, -0.1379685",
    "lat": 51.4621384,
    "lng": -0.1379685
  },
  {
    "name": "O'Neill's Enfield",
    "road": "5 The Town",
    "location": "ENFIELD",
    "postcode": "EN2 6LE",
    "address": "5 The Town ENFIELD EN2 6LE",
    "coordinates": "51.6518527, -0.0814859",
    "lat": 51.6518527,
    "lng": -0.0814859
  },
  {
    "name": "O'Neill's Grand Central Glasgow",
    "road": "40-48 Union Street",
    "location": "GLASGOW",
    "postcode": "G1 3QX",
    "address": "40-48 Union Street GLASGOW G1 3QX",
    "coordinates": "55.8589991, -4.2564111",
    "lat": 55.8589991,
    "lng": -4.2564111
  },
  {
    "name": "O'Neill's Great Marlborough Street",
    "road": "37-38 Great Marlborough Street",
    "location": "LONDON",
    "postcode": "W1F 7JF",
    "address": "37-38 Great Marlborough Street LONDON W1F 7JF",
    "coordinates": "51.51402909999999, -0.1392562",
    "lat": 51.5140291,
    "lng": -0.1392562
  },
  {
    "name": "O'Neill's Harborne",
    "road": "310 High Street",
    "location": "BIRMINGHAM",
    "postcode": "B17 9PU",
    "address": "310 High Street BIRMINGHAM B17 9PU",
    "coordinates": "52.45794859999999, -1.9549953",
    "lat": 52.4579486,
    "lng": -1.9549953
  },
  {
    "name": "O'Neill's High Wycombe",
    "road": "Pauls Row",
    "location": "HIGH WYCOMBE",
    "postcode": "HP11 2HQ",
    "address": "Pauls Row HIGH WYCOMBE HP11 2HQ",
    "coordinates": "51.6289443, -0.7515051",
    "lat": 51.6289443,
    "lng": -0.7515051
  },
  {
    "name": "O'Neill's Ilford",
    "road": "Station Road",
    "location": "ILFORD",
    "postcode": "IG1 4DW",
    "address": "Station Road ILFORD IG1 4DW",
    "coordinates": "51.559005, 0.0710929",
    "lat": 51.559005,
    "lng": 0.0710929
  },
  {
    "name": "O'Neill's Kings Cross",
    "road": "73-77 Euston Road",
    "location": "LONDON",
    "postcode": "NW1 2QS",
    "address": "73-77 Euston Road LONDON NW1 2QS",
    "coordinates": "51.52894329999999, -0.1261751",
    "lat": 51.5289433,
    "lng": -0.1261751
  },
  {
    "name": "O'Neill's Kingston Upon Thames",
    "road": "3 Eden Street",
    "location": "KINGSTON UPON THAMES",
    "postcode": "KT1 1BQ",
    "address": "3 Eden Street KINGSTON UPON THAMES KT1 1BQ",
    "coordinates": "51.4090836, -0.3055387",
    "lat": 51.4090836,
    "lng": -0.3055387
  },
  {
    "name": "O'Neill's Leeds",
    "road": "40 Boar Lane",
    "location": "LEEDS",
    "postcode": "LS1 5DA",
    "address": "40 Boar Lane LEEDS LS1 5DA",
    "coordinates": "53.7959104, -1.5467167",
    "lat": 53.7959104,
    "lng": -1.5467167
  },
  {
    "name": "O'Neill's Leicester",
    "road": "18-20 Loseby Lane",
    "location": "LEICESTER",
    "postcode": "LE1 5DR",
    "address": "18-20 Loseby Lane LEICESTER LE1 5DR",
    "coordinates": "52.6348642, -1.1359727",
    "lat": 52.6348642,
    "lng": -1.1359727
  },
  {
    "name": "O'Neill's Leytonstone",
    "road": "762 High Road Leytonstone",
    "location": "LEYTONSTONE",
    "postcode": "E11 3AW",
    "address": "762 High Road Leytonstone LEYTONSTONE E11 3AW",
    "coordinates": "51.5706313, 0.0151907",
    "lat": 51.5706313,
    "lng": 0.0151907
  },
  {
    "name": "O'Neill's Liverpool",
    "road": "68 Hanover Street",
    "location": "LIVERPOOL",
    "postcode": "L1 4AG",
    "address": "68 Hanover Street LIVERPOOL L1 4AG",
    "coordinates": "53.404204, -2.9818937",
    "lat": 53.404204,
    "lng": -2.9818937
  },
  {
    "name": "O'Neills Maidenhead",
    "road": "95-97 King Street",
    "location": "MAIDENHEAD",
    "postcode": "SL6 1DP",
    "address": "95-97 King Street MAIDENHEAD SL6 1DP",
    "coordinates": "51.519796, -0.7215657999999999",
    "lat": 51.519796,
    "lng": -0.7215658
  },
  {
    "name": "O'Neill's Merchant Square",
    "road": "71-73 Albion Street",
    "location": "GLASGOW",
    "postcode": "G1 1NY",
    "address": "71-73 Albion Street GLASGOW G1 1NY",
    "coordinates": "55.8585383, -4.2451441",
    "lat": 55.8585383,
    "lng": -4.2451441
  },
  {
    "name": "O'Neill's Northampton",
    "road": "45-47 The Drapery",
    "location": "NORTHAMPTON",
    "postcode": "NN1 2EU",
    "address": "45-47 The Drapery NORTHAMPTON NN1 2EU",
    "coordinates": "52.2384682, -0.8975055999999999",
    "lat": 52.2384682,
    "lng": -0.8975056
  },
  {
    "name": "O'Neill's Nottingham",
    "road": "8-9 Beastmarket Hill",
    "location": "NOTTINGHAM",
    "postcode": "NG1 6FB",
    "address": "8-9 Beastmarket Hill NOTTINGHAM NG1 6FB",
    "coordinates": "52.9530503, -1.1511843",
    "lat": 52.9530503,
    "lng": -1.1511843
  },
  {
    "name": "O'Neill's Oxford",
    "road": "37 George Street",
    "location": "OXFORD",
    "postcode": "OX1 2AY",
    "address": "37 George Street OXFORD OX1 2AY",
    "coordinates": "51.7535337, -1.2606732",
    "lat": 51.7535337,
    "lng": -1.2606732
  },
  {
    "name": "O'Neill's Peterborough",
    "road": "Broadway",
    "location": "PETERBOROUGH",
    "postcode": "PE1 1SQ",
    "address": "Broadway PETERBOROUGH PE1 1SQ",
    "coordinates": "52.5762364, -0.2411347",
    "lat": 52.5762364,
    "lng": -0.2411347
  },
  {
    "name": "O'Neill's Printworks",
    "road": "The Printworks",
    "location": "MANCHESTER",
    "postcode": "M4 2BS",
    "address": "The Printworks MANCHESTER M4 2BS",
    "coordinates": "53.48518499999999, -2.2407754",
    "lat": 53.485185,
    "lng": -2.2407754
  },
  {
    "name": "O'Neill's Reading",
    "road": "4 Friar Street",
    "location": "READING",
    "postcode": "RG1 1DB",
    "address": "4 Friar Street READING RG1 1DB",
    "coordinates": "51.4567158, -0.970328",
    "lat": 51.4567158,
    "lng": -0.970328
  },
  {
    "name": "O'Neill's Solihull",
    "road": "Poplar Road",
    "location": "SOLIHULL",
    "postcode": "B91 3AB",
    "address": "Poplar Road SOLIHULL B91 3AB",
    "coordinates": "52.4145441, -1.7788236",
    "lat": 52.4145441,
    "lng": -1.7788236
  },
  {
    "name": "O'Neills Southampton",
    "road": "100-132 Above Bar Street",
    "location": "SOUTHAMPTON",
    "postcode": "SO14 7DU",
    "address": "100-132 Above Bar Street SOUTHAMPTON SO14 7DU",
    "coordinates": "50.90571200000001, -1.4041271",
    "lat": 50.905712,
    "lng": -1.4041271
  },
  {
    "name": "O'Neill's Southsea",
    "road": "Albert Road",
    "location": "SOUTHSEA",
    "postcode": "PO5 2SX",
    "address": "Albert Road SOUTHSEA PO5 2SX",
    "coordinates": "50.7879831, -1.0819947",
    "lat": 50.7879831,
    "lng": -1.0819947
  },
  {
    "name": "O'Neill's Sutton",
    "road": "37 High Street",
    "location": "SUTTON",
    "postcode": "SM1 1DJ",
    "address": "37 High Street SUTTON SM1 1DJ",
    "coordinates": "51.3609977, -0.1922945",
    "lat": 51.3609977,
    "lng": -0.1922945
  },
  {
    "name": "O'Neill's Trinity Street",
    "road": "20-21 Trinity Street",
    "location": "CARDIFF",
    "postcode": "CF10 1BH",
    "address": "20-21 Trinity Street CARDIFF CF10 1BH",
    "coordinates": "51.48048505349968, -3.1784474951797224",
    "lat": 51.48048505349968,
    "lng": -3.1784474951797224
  },
  {
    "name": "O'Neill's Wardour Street",
    "road": "33-37 Wardour Street",
    "location": "LONDON",
    "postcode": "W1D 6PU",
    "address": "33-37 Wardour Street LONDON W1D 6PU",
    "coordinates": "51.5113436, -0.1322817",
    "lat": 51.5113436,
    "lng": -0.1322817
  },
  {
    "name": "O'Neill's Watford",
    "road": "Station Road",
    "location": "WATFORD",
    "postcode": "WD17 1ET",
    "address": "Station Road WATFORD WD17 1ET",
    "coordinates": "51.663721, -0.3977753",
    "lat": 51.663721,
    "lng": -0.3977753
  },
  {
    "name": "O'Neill's Winchester",
    "road": "90-91 High Street",
    "location": "WINCHESTER",
    "postcode": "SO23 9AP",
    "address": "90-91 High Street WINCHESTER SO23 9AP",
    "coordinates": "51.0631638, -1.3170031",
    "lat": 51.0631638,
    "lng": -1.3170031
  },
  {
    "name": "O'Neill's Woking",
    "road": "Crown Square",
    "location": "SURREY",
    "postcode": "GU21 6HR",
    "address": "Crown Square SURREY GU21 6HR",
    "coordinates": "51.3202798, -0.5566063",
    "lat": 51.3202798,
    "lng": -0.5566063
  },
  {
    "name": "O'Neill's Worcester",
    "road": "6-8 St. Nicholas Street",
    "location": "WORCESTER",
    "postcode": "WR1 1UW",
    "address": "6-8 St. Nicholas Street WORCESTER WR1 1UW",
    "coordinates": "52.1936657, -2.2202982",
    "lat": 52.1936657,
    "lng": -2.2202982
  },
  {
    "name": "O'Neill's York",
    "road": "10 Low Ousegate",
    "location": "YORK",
    "postcode": "YO1 9QU",
    "address": "10 Low Ousegate YORK YO1 9QU",
    "coordinates": "53.9576707, -1.0830424",
    "lat": 53.9576707,
    "lng": -1.0830424
  },
  {
    "name": "Open Arms",
    "road": "Daventry Road",
    "location": "WEST MIDLANDS",
    "postcode": "CV3 5DP",
    "address": "Daventry Road WEST MIDLANDS CV3 5DP",
    "coordinates": "52.3921326, -1.5140882",
    "lat": 52.3921326,
    "lng": -1.5140882
  },
  {
    "name": "Optimist",
    "road": "23-25 St. Giles Street",
    "location": "NORTHAMPTON",
    "postcode": "NN1 1JA",
    "address": "23-25 St. Giles Street NORTHAMPTON NN1 1JA",
    "coordinates": "52.2374869, -0.8933877",
    "lat": 52.2374869,
    "lng": -0.8933877
  },
  {
    "name": "Optimist Tavern",
    "road": "Hacton Lane",
    "location": "ESSEX",
    "postcode": "RM14 2XY",
    "address": "Hacton Lane ESSEX RM14 2XY",
    "coordinates": "51.551448, 0.2321803",
    "lat": 51.551448,
    "lng": 0.2321803
  },
  {
    "name": "Original Oak",
    "road": "2 Otley Road",
    "location": "LEEDS",
    "postcode": "LS6 2DG",
    "address": "2 Otley Road LEEDS LS6 2DG",
    "coordinates": "53.8195728, -1.575934",
    "lat": 53.8195728,
    "lng": -1.575934
  },
  {
    "name": "Original Plough",
    "road": "28 Duke St",
    "location": "CHELMSFORD",
    "postcode": "CM1 1HY",
    "address": "28 Duke St CHELMSFORD CM1 1HY",
    "coordinates": "51.73647339999999, 0.4680061",
    "lat": 51.7364734,
    "lng": 0.4680061
  },
  {
    "name": "Owington Farm",
    "road": "Longfellow Road",
    "location": "BILLINGHAM",
    "postcode": "TS23 3TL",
    "address": "Longfellow Road BILLINGHAM TS23 3TL",
    "coordinates": "54.6254207, -1.2883864",
    "lat": 54.6254207,
    "lng": -1.2883864
  },
  {
    "name": "Owton Lodge",
    "road": "Stockton Road",
    "location": "HARTLEPOOL",
    "postcode": "TS25 1HA",
    "address": "Stockton Road HARTLEPOOL TS25 1HA",
    "coordinates": "54.657843, -1.2218998",
    "lat": 54.657843,
    "lng": -1.2218998
  },
  {
    "name": "Packhorse",
    "road": "Alcester Road",
    "location": "WYTHAL",
    "postcode": "B47 5HA",
    "address": "Alcester Road WYTHAL B47 5HA",
    "coordinates": "52.3920291, -1.8842025",
    "lat": 52.3920291,
    "lng": -1.8842025
  },
  {
    "name": "Painted Lady",
    "road": "Longfellow Road",
    "location": "COVENTRY",
    "postcode": "CV2 5HN",
    "address": "Longfellow Road COVENTRY CV2 5HN",
    "coordinates": "52.4108527, -1.4642423",
    "lat": 52.4108527,
    "lng": -1.4642423
  },
  {
    "name": "Palace",
    "road": "Kirkgate",
    "location": "LEEDS",
    "postcode": "LS2 7DJ",
    "address": "Kirkgate LEEDS LS2 7DJ",
    "coordinates": "53.7956771, -1.5373045",
    "lat": 53.7956771,
    "lng": -1.5373045
  },
  {
    "name": "Park Hotel",
    "road": "Wadsley Lane",
    "location": "SHEFFIELD",
    "postcode": "S6 4EB",
    "address": "Wadsley Lane SHEFFIELD S6 4EB",
    "coordinates": "53.4102024, -1.5068258",
    "lat": 53.4102024,
    "lng": -1.5068258
  },
  {
    "name": "Peacock Inn",
    "road": "7 Lower Street",
    "location": "KETTERING",
    "postcode": "NN16 8DH",
    "address": "7 Lower Street KETTERING NN16 8DH",
    "coordinates": "52.4001084, -0.7287477",
    "lat": 52.4001084,
    "lng": -0.7287477
  },
  {
    "name": "Phantom Coach",
    "road": "Fletchamstead Highway",
    "location": "COVENTRY",
    "postcode": "CV4 7BA",
    "address": "Fletchamstead Highway COVENTRY CV4 7BA",
    "coordinates": "52.3912314, -1.5490913",
    "lat": 52.3912314,
    "lng": -1.5490913
  },
  {
    "name": "Piccadilly Tavern",
    "road": "71-75 Piccadilly",
    "location": "MANCHESTER",
    "postcode": "M1 2BS",
    "address": "71-75 Piccadilly MANCHESTER M1 2BS",
    "coordinates": "53.4806651, -2.2340291",
    "lat": 53.4806651,
    "lng": -2.2340291
  },
  {
    "name": "Pied Piper",
    "road": "Orchard Way",
    "location": "MIDDLESBROUGH",
    "postcode": "TS7 9BZ",
    "address": "Orchard Way MIDDLESBROUGH TS7 9BZ",
    "coordinates": "54.5447061, -1.1764634",
    "lat": 54.5447061,
    "lng": -1.1764634
  },
  {
    "name": "Pike & Musket",
    "road": "Windsor Drive",
    "location": "GLOUCESTER",
    "postcode": "GL4 0QJ",
    "address": "Windsor Drive GLOUCESTER GL4 0QJ",
    "coordinates": "51.8289773, -2.2586161",
    "lat": 51.8289773,
    "lng": -2.2586161
  },
  {
    "name": "Pilot",
    "road": "58 Green Lane",
    "location": "WOLVERHAMPTON",
    "postcode": "WV6 9HX",
    "address": "58 Green Lane WOLVERHAMPTON WV6 9HX",
    "coordinates": "52.6099393, -2.1555201",
    "lat": 52.6099393,
    "lng": -2.1555201
  },
  {
    "name": "Plough",
    "road": "Tring Road",
    "location": "AYLESBURY",
    "postcode": "HP20 1JH",
    "address": "Tring Road AYLESBURY HP20 1JH",
    "coordinates": "51.8141959, -0.787275",
    "lat": 51.8141959,
    "lng": -0.787275
  },
  {
    "name": "Plough Inn",
    "road": "Killingworth Village",
    "location": "NEWCASTLE UPON TYNE",
    "postcode": "NE12 6BL",
    "address": "Killingworth Village NEWCASTLE UPON TYNE NE12 6BL",
    "coordinates": "55.0319693, -1.5577517",
    "lat": 55.0319693,
    "lng": -1.5577517
  },
  {
    "name": "Plough Inn",
    "road": "Town Street",
    "location": "NOTTINGHAMSHIRE",
    "postcode": "NG10 5DU",
    "address": "Town Street NOTTINGHAMSHIRE NG10 5DU",
    "coordinates": "52.9248923, -1.2884849",
    "lat": 52.9248923,
    "lng": -1.2884849
  },
  {
    "name": "Plume of Feathers",
    "road": "123 Church Hill",
    "location": "LOUGHTON",
    "postcode": "IG10 1QR",
    "address": "123 Church Hill LOUGHTON IG10 1QR",
    "coordinates": "51.6552339, 0.06624429999999999",
    "lat": 51.6552339,
    "lng": 0.0662443
  },
  {
    "name": "Podger",
    "road": "Ninelands Lane",
    "location": "LEEDS",
    "postcode": "LS25 1NT",
    "address": "Ninelands Lane LEEDS LS25 1NT",
    "coordinates": "53.7901872, -1.3765691",
    "lat": 53.7901872,
    "lng": -1.3765691
  },
  {
    "name": "Potters Wheel",
    "road": "Bradwell Lane",
    "location": "NEWCASTLE",
    "postcode": "ST5 8PS",
    "address": "Bradwell Lane NEWCASTLE ST5 8PS",
    "coordinates": "53.0377862, -2.2249409",
    "lat": 53.0377862,
    "lng": -2.2249409
  },
  {
    "name": "Pottery",
    "road": "Treforest Industrial Estate",
    "location": "PONTYPRIDD",
    "postcode": "CF37 5YR",
    "address": "Treforest Industrial Estate PONTYPRIDD CF37 5YR",
    "coordinates": "51.5648427, -3.2824856",
    "lat": 51.5648427,
    "lng": -3.2824856
  },
  {
    "name": "Powder Monkey",
    "road": "Wiltshire Drive",
    "location": "WALLSEND",
    "postcode": "NE28 8TU",
    "address": "Wiltshire Drive WALLSEND NE28 8TU",
    "coordinates": "55.0055609, -1.5489224",
    "lat": 55.0055609,
    "lng": -1.5489224
  },
  {
    "name": "Prairie Hotel",
    "road": "Keswick Road",
    "location": "BURNLEY",
    "postcode": "BB10 1HW",
    "address": "Keswick Road BURNLEY BB10 1HW",
    "coordinates": "53.8095014, -2.2354263",
    "lat": 53.8095014,
    "lng": -2.2354263
  },
  {
    "name": "Preston",
    "road": "161 Preston Road",
    "location": "LONDON",
    "postcode": "HA9 8NG",
    "address": "161 Preston Road LONDON HA9 8NG",
    "coordinates": "51.5696504, -0.2952275",
    "lat": 51.5696504,
    "lng": -0.2952275
  },
  {
    "name": "Priory",
    "road": "Bourton Way",
    "location": "WELLINGBOROUGH",
    "postcode": "NN8 2LF",
    "address": "Bourton Way WELLINGBOROUGH NN8 2LF",
    "coordinates": "52.2852249, -0.7102032",
    "lat": 52.2852249,
    "lng": -0.7102032
  },
  {
    "name": "Punch Bowl",
    "road": "214 Porchester Road",
    "location": "NOTTINGHAM",
    "postcode": "NG3 6HG",
    "address": "214 Porchester Road NOTTINGHAM NG3 6HG",
    "coordinates": "52.97387699999999, -1.1201838",
    "lat": 52.973877,
    "lng": -1.1201838
  },
  {
    "name": "Queen Adelaide",
    "road": "272 Kingston Road",
    "location": "SURREY",
    "postcode": "KT19 0SH",
    "address": "272 Kingston Road SURREY KT19 0SH",
    "coordinates": "51.3632301, -0.257366",
    "lat": 51.3632301,
    "lng": -0.257366
  },
  {
    "name": "Queen Elizabeth",
    "road": "95 Forest Side",
    "location": "CHINGFORD",
    "postcode": "E4 6BA",
    "address": "95 Forest Side CHINGFORD E4 6BA",
    "coordinates": "51.6302659, 0.0156996",
    "lat": 51.6302659,
    "lng": 0.0156996
  },
  {
    "name": "Queens Head",
    "road": "390 Maidstone Road",
    "location": "KENT",
    "postcode": "ME8 0HT",
    "address": "390 Maidstone Road KENT ME8 0HT",
    "coordinates": "51.35258719999999, 0.5905872",
    "lat": 51.3525872,
    "lng": 0.5905872
  },
  {
    "name": "Queens Head",
    "road": "2 High Street",
    "location": "KENT",
    "postcode": "BR7 5AN",
    "address": "2 High Street KENT BR7 5AN",
    "coordinates": "51.41781169999999, 0.0684524",
    "lat": 51.4178117,
    "lng": 0.0684524
  },
  {
    "name": "Queens Head",
    "road": "73 High Street",
    "location": "ORPINGTON",
    "postcode": "BR6 6BQ",
    "address": "73 High Street ORPINGTON BR6 6BQ",
    "coordinates": "51.3522657, 0.0898719",
    "lat": 51.3522657,
    "lng": 0.0898719
  },
  {
    "name": "Queslett",
    "road": "Queslett Road East",
    "location": "SUTTON COLDFIELD",
    "postcode": "B74 2EY",
    "address": "Queslett Road East SUTTON COLDFIELD B74 2EY",
    "coordinates": "52.5657143, -1.8856778",
    "lat": 52.5657143,
    "lng": -1.8856778
  },
  {
    "name": "Railway",
    "road": "Duke Street",
    "location": "LIVERPOOL",
    "postcode": "L37 4AS",
    "address": "Duke Street LIVERPOOL L37 4AS",
    "coordinates": "53.5532408, -3.06897",
    "lat": 53.5532408,
    "lng": -3.06897
  },
  {
    "name": "Railway",
    "road": "Hill Street",
    "location": "BIRMINGHAM",
    "postcode": "B1 1PU",
    "address": "Hill Street BIRMINGHAM B1 1PU",
    "coordinates": "52.4771972, -1.9005897",
    "lat": 52.4771972,
    "lng": -1.9005897
  },
  {
    "name": "Railway Hotel",
    "road": "Red Lodge Road",
    "location": "WEST WICKHAM",
    "postcode": "BR4 0EW",
    "address": "Red Lodge Road WEST WICKHAM BR4 0EW",
    "coordinates": "51.380432, -0.0136047",
    "lat": 51.380432,
    "lng": -0.0136047
  },
  {
    "name": "Railway Hotel",
    "road": "Station Lane",
    "location": "HORNCHURCH",
    "postcode": "RM12 6SB",
    "address": "Station Lane HORNCHURCH RM12 6SB",
    "coordinates": "51.5547796, 0.2196069",
    "lat": 51.5547796,
    "lng": 0.2196069
  },
  {
    "name": "Ram Inn",
    "road": "Mansfield Road",
    "location": "NOTTINGHAM",
    "postcode": "NG5 8JY",
    "address": "Mansfield Road NOTTINGHAM NG5 8JY",
    "coordinates": "53.0125744, -1.1331176",
    "lat": 53.0125744,
    "lng": -1.1331176
  },
  {
    "name": "Rayleigh Lodge",
    "road": "70 The Chase",
    "location": "ESSEX",
    "postcode": "SS6 8RW",
    "address": "70 The Chase ESSEX SS6 8RW",
    "coordinates": "51.5829824, 0.6226459",
    "lat": 51.5829824,
    "lng": 0.6226459
  },
  {
    "name": "Red Lion",
    "road": "Ansty Road",
    "location": "COVENTRY",
    "postcode": "CV2 2EY",
    "address": "Ansty Road COVENTRY CV2 2EY",
    "coordinates": "52.4241945, -1.4453575",
    "lat": 52.4241945,
    "lng": -1.4453575
  },
  {
    "name": "Red Lion",
    "road": "High Street",
    "location": "HAYWARDS HEATH",
    "postcode": "RH16 2HL",
    "address": "High Street HAYWARDS HEATH RH16 2HL",
    "coordinates": "51.0129999, -0.0811344",
    "lat": 51.0129999,
    "lng": -0.0811344
  },
  {
    "name": "Red Lion",
    "road": "5 Oxford Road",
    "location": "OXFORD",
    "postcode": "OX5 2BP",
    "address": "5 Oxford Road OXFORD OX5 2BP",
    "coordinates": "51.8228701, -1.2892066",
    "lat": 51.8228701,
    "lng": -1.2892066
  },
  {
    "name": "Red Lion",
    "road": "1672 High Street",
    "location": "SOLIHULL",
    "postcode": "B93 0LY",
    "address": "1672 High Street SOLIHULL B93 0LY",
    "coordinates": "52.3879331, -1.7341437",
    "lat": 52.3879331,
    "lng": -1.7341437
  },
  {
    "name": "Red Lion",
    "road": "Vicarage Road",
    "location": "BIRMINGHAM",
    "postcode": "B14 7LY",
    "address": "Vicarage Road BIRMINGHAM B14 7LY",
    "coordinates": "52.429249, -1.9019018",
    "lat": 52.429249,
    "lng": -1.9019018
  },
  {
    "name": "Red Lion",
    "road": "164 Warrington Road",
    "location": "WARRINGTON",
    "postcode": "WA5 2LZ",
    "address": "164 Warrington Road WARRINGTON WA5 2LZ",
    "coordinates": "53.3829899, -2.6586048",
    "lat": 53.3829899,
    "lng": -2.6586048
  },
  {
    "name": "Red Lion",
    "road": "470 High Street",
    "location": "BEDFORD",
    "postcode": "MK42 9XP",
    "address": "470 High Street BEDFORD MK42 9XP",
    "coordinates": "52.1166165, -0.4686",
    "lat": 52.1166165,
    "lng": -0.4686
  },
  {
    "name": "Red Lion",
    "road": "Battlefield",
    "location": "SHREWSBURY",
    "postcode": "SY1 4AB",
    "address": "Battlefield SHREWSBURY SY1 4AB",
    "coordinates": "52.742247, -2.7207572",
    "lat": 52.742247,
    "lng": -2.7207572
  },
  {
    "name": "Red Lion",
    "road": "468 Wellsway",
    "location": "BATH",
    "postcode": "BA2 2UA",
    "address": "468 Wellsway BATH BA2 2UA",
    "coordinates": "51.35858080000001, -2.3763512",
    "lat": 51.3585808,
    "lng": -2.3763512
  },
  {
    "name": "Red Lion",
    "road": "59 Northgate Street",
    "location": "CHESTER",
    "postcode": "CH1 2HQ",
    "address": "59 Northgate Street CHESTER CH1 2HQ",
    "coordinates": "53.1931671, -2.8931147",
    "lat": 53.1931671,
    "lng": -2.8931147
  },
  {
    "name": "Red Lion Hotel",
    "road": "London Road",
    "location": "PORTSMOUTH",
    "postcode": "PO6 3EE",
    "address": "London Road PORTSMOUTH PO6 3EE",
    "coordinates": "50.8470479, -1.0664895",
    "lat": 50.8470479,
    "lng": -1.0664895
  },
  {
    "name": "Richmond Tavern",
    "road": "23A Church Road",
    "location": "LIVERPOOL",
    "postcode": "L15 9EA",
    "address": "23A Church Road LIVERPOOL L15 9EA",
    "coordinates": "53.3904135, -2.9149889",
    "lat": 53.3904135,
    "lng": -2.9149889
  },
  {
    "name": "Ridgeway Tavern",
    "road": "76 The Ridgeway",
    "location": "ENFIELD",
    "postcode": "EN2 8JF",
    "address": "76 The Ridgeway ENFIELD EN2 8JF",
    "coordinates": "51.6627448, -0.1040241",
    "lat": 51.6627448,
    "lng": -0.1040241
  },
  {
    "name": "Riftswood",
    "road": "Comberford Road",
    "location": "TAMWORTH",
    "postcode": "B79 8PB",
    "address": "Comberford Road TAMWORTH B79 8PB",
    "coordinates": "52.6434672, -1.6957826",
    "lat": 52.6434672,
    "lng": -1.6957826
  },
  {
    "name": "Rising Sun Hotel",
    "road": "665 Abbey Lane",
    "location": "SHEFFIELD",
    "postcode": "S11 9ND",
    "address": "665 Abbey Lane SHEFFIELD S11 9ND",
    "coordinates": "53.3440906, -1.5198153",
    "lat": 53.3440906,
    "lng": -1.5198153
  },
  {
    "name": "Robin Hood",
    "road": "Millhouses Lane",
    "location": "SHEFFIELD",
    "postcode": "S7 2HB",
    "address": "Millhouses Lane SHEFFIELD S7 2HB",
    "coordinates": "53.3464231, -1.5005484",
    "lat": 53.3464231,
    "lng": -1.5005484
  },
  {
    "name": "Robins Nest",
    "road": "393 Gilmerton Road",
    "location": "EDINBURGH",
    "postcode": "EH17 7PX",
    "address": "393 Gilmerton Road EDINBURGH EH17 7PX",
    "coordinates": "55.91510479999999, -3.149241200000001",
    "lat": 55.9151048,
    "lng": -3.1492412
  },
  {
    "name": "Rock",
    "road": "205 Hyndland Road",
    "location": "GLASGOW",
    "postcode": "G12 9HE",
    "address": "205 Hyndland Road GLASGOW G12 9HE",
    "coordinates": "55.8750797, -4.3035823",
    "lat": 55.8750797,
    "lng": -4.3035823
  },
  {
    "name": "Rocket",
    "road": "120 Euston Road",
    "location": "LONDON",
    "postcode": "NW1 2AL",
    "address": "120 Euston Road LONDON NW1 2AL",
    "coordinates": "51.528245, -0.1288743",
    "lat": 51.528245,
    "lng": -0.1288743
  },
  {
    "name": "Rose & Crown",
    "road": "Louth Road",
    "location": "GRIMSBY",
    "postcode": "DN33 2HR",
    "address": "Louth Road GRIMSBY DN33 2HR",
    "coordinates": "53.5359786, -0.0898289",
    "lat": 53.5359786,
    "lng": -0.0898289
  },
  {
    "name": "Rose & Crown",
    "road": "351 Penn Road",
    "location": "WOLVERHAMPTON",
    "postcode": "WV4 5QG",
    "address": "351 Penn Road WOLVERHAMPTON WV4 5QG",
    "coordinates": "52.5593383, -2.1576413",
    "lat": 52.5593383,
    "lng": -2.1576413
  },
  {
    "name": "Rose & Crown",
    "road": "15 Heathfield Road",
    "location": "REDDITCH",
    "postcode": "B97 5RB",
    "address": "15 Heathfield Road REDDITCH B97 5RB",
    "coordinates": "52.2979614, -1.9652697",
    "lat": 52.2979614,
    "lng": -1.9652697
  },
  {
    "name": "Rosette",
    "road": "2 Hackness Road",
    "location": "SCARBOROUGH",
    "postcode": "YO12 5RY",
    "address": "2 Hackness Road SCARBOROUGH YO12 5RY",
    "coordinates": "54.2967593, -0.4424661",
    "lat": 54.2967593,
    "lng": -0.4424661
  },
  {
    "name": "Royal",
    "road": "53 Church Street",
    "location": "BIRMINGHAM",
    "postcode": "B3 2DP",
    "address": "53 Church Street BIRMINGHAM B3 2DP",
    "coordinates": "52.4830536, -1.9013077",
    "lat": 52.4830536,
    "lng": -1.9013077
  },
  {
    "name": "Royal Oak",
    "road": "Manor Lane",
    "location": "HALESOWEN",
    "postcode": "B62 8PZ",
    "address": "Manor Lane HALESOWEN B62 8PZ",
    "coordinates": "52.452938, -2.0243684",
    "lat": 52.452938,
    "lng": -2.0243684
  },
  {
    "name": "Royal Oak",
    "road": "Rising Brook",
    "location": "STAFFORD",
    "postcode": "ST17 9DH",
    "address": "Rising Brook STAFFORD ST17 9DH",
    "coordinates": "52.7870104, -2.1165849",
    "lat": 52.7870104,
    "lng": -2.1165849
  },
  {
    "name": "Running Horse",
    "road": "Groveley Road",
    "location": "SUNBURY-ON-THAMES",
    "postcode": "TW16 7LB",
    "address": "Groveley Road SUNBURY-ON-THAMES TW16 7LB",
    "coordinates": "51.4294584, -0.4209752",
    "lat": 51.4294584,
    "lng": -0.4209752
  },
  {
    "name": "Sandringham",
    "road": "Quakers Road",
    "location": "BRISTOL",
    "postcode": "BS16 6NH",
    "address": "Quakers Road BRISTOL BS16 6NH",
    "coordinates": "51.4993542, -2.5033609",
    "lat": 51.4993542,
    "lng": -2.5033609
  },
  {
    "name": "Saracens Head",
    "road": "Stratford Road",
    "location": "SOLIHULL",
    "postcode": "B90 3AG",
    "address": "Stratford Road SOLIHULL B90 3AG",
    "coordinates": "52.4111002, -1.8265701",
    "lat": 52.4111002,
    "lng": -1.8265701
  },
  {
    "name": "Seabridge",
    "road": "174 Seabridge Lane",
    "location": "NEWCASTLE",
    "postcode": "ST5 3HA",
    "address": "174 Seabridge Lane NEWCASTLE ST5 3HA",
    "coordinates": "52.990398, -2.2358505",
    "lat": 52.990398,
    "lng": -2.2358505
  },
  {
    "name": "Selly Park Tavern",
    "road": "592 Pershore Road",
    "location": "BIRMINGHAM",
    "postcode": "B29 7HQ",
    "address": "592 Pershore Road BIRMINGHAM B29 7HQ",
    "coordinates": "52.44742850000001, -1.9133236",
    "lat": 52.4474285,
    "lng": -1.9133236
  },
  {
    "name": "Seven Stars",
    "road": "Alphington Road",
    "location": "EXETER",
    "postcode": "EX2 8JB",
    "address": "Alphington Road EXETER EX2 8JB",
    "coordinates": "50.7092236, -3.5380373",
    "lat": 50.7092236,
    "lng": -3.5380373
  },
  {
    "name": "Sharmans Cross",
    "road": "127 Prospect Lane",
    "location": "SOLIHULL",
    "postcode": "B91 1HT",
    "address": "127 Prospect Lane SOLIHULL B91 1HT",
    "coordinates": "52.4141808, -1.8082122",
    "lat": 52.4141808,
    "lng": -1.8082122
  },
  {
    "name": "Sherwood",
    "road": "Sherwood Way",
    "location": "PRESTON",
    "postcode": "PR2 9GA",
    "address": "Sherwood Way PRESTON PR2 9GA",
    "coordinates": "53.7910157, -2.6968965",
    "lat": 53.7910157,
    "lng": -2.6968965
  },
  {
    "name": "Ship",
    "road": "26 Manor Road",
    "location": "PAIGNTON",
    "postcode": "TQ3 2HR",
    "address": "26 Manor Road PAIGNTON TQ3 2HR",
    "coordinates": "50.4442351, -3.5621464",
    "lat": 50.4442351,
    "lng": -3.5621464
  },
  {
    "name": "Ship Ashore",
    "road": "Granville Square",
    "location": "MILTON KEYNES",
    "postcode": "MK15 9JL",
    "address": "Granville Square MILTON KEYNES MK15 9JL",
    "coordinates": "52.0630388, -0.7314746",
    "lat": 52.0630388,
    "lng": -0.7314746
  },
  {
    "name": "Ship Inn",
    "road": "804 Warrington Road",
    "location": "RAINHILL",
    "postcode": "L35 6PE",
    "address": "804 Warrington Road RAINHILL L35 6PE",
    "coordinates": "53.4075899, -2.7521214",
    "lat": 53.4075899,
    "lng": -2.7521214
  },
  {
    "name": "Shipping Forecast",
    "road": "15 Slater Street",
    "location": "LIVERPOOL",
    "postcode": "L1 4BW",
    "address": "15 Slater Street LIVERPOOL L1 4BW",
    "coordinates": "53.40255999999999, -2.9793905",
    "lat": 53.40256,
    "lng": -2.9793905
  },
  {
    "name": "Smithys Forge",
    "road": "7 Lichfield Road",
    "location": "WALSALL",
    "postcode": "WS8 6HR",
    "address": "7 Lichfield Road WALSALL WS8 6HR",
    "coordinates": "52.6489649, -1.9344791",
    "lat": 52.6489649,
    "lng": -1.9344791
  },
  {
    "name": "Southdowns",
    "road": "133 Felpham Way",
    "location": "BOGNOR REGIS",
    "postcode": "PO22 8QJ",
    "address": "133 Felpham Way BOGNOR REGIS PO22 8QJ",
    "coordinates": "50.7941921, -0.6384522",
    "lat": 50.7941921,
    "lng": -0.6384522
  },
  {
    "name": "Southfields",
    "road": "19 Green Lane",
    "location": "BOLTON",
    "postcode": "BL3 2EE",
    "address": "19 Green Lane BOLTON BL3 2EE",
    "coordinates": "53.56038110000001, -2.4261775",
    "lat": 53.5603811,
    "lng": -2.4261775
  },
  {
    "name": "Sovereigns",
    "road": "Guildford Road",
    "location": "SURREY",
    "postcode": "GU22 7QQ",
    "address": "Guildford Road SURREY GU22 7QQ",
    "coordinates": "51.3149027, -0.5598965",
    "lat": 51.3149027,
    "lng": -0.5598965
  },
  {
    "name": "Spa",
    "road": "60 Southend Road",
    "location": "HOCKLEY",
    "postcode": "SS5 4QH",
    "address": "60 Southend Road HOCKLEY SS5 4QH",
    "coordinates": "51.6011853, 0.6545352",
    "lat": 51.6011853,
    "lng": 0.6545352
  },
  {
    "name": "Spirit Of Endeavour",
    "road": "Marsh Lane",
    "location": "BOSTON",
    "postcode": "PE21 7QS",
    "address": "Marsh Lane BOSTON PE21 7QS",
    "coordinates": "52.964437, -0.0252686",
    "lat": 52.964437,
    "lng": -0.0252686
  },
  {
    "name": "Sportsman",
    "road": "57 Benty Lane",
    "location": "SHEFFIELD",
    "postcode": "S10 5NF",
    "address": "57 Benty Lane SHEFFIELD S10 5NF",
    "coordinates": "53.3807012, -1.5232979",
    "lat": 53.3807012,
    "lng": -1.5232979
  },
  {
    "name": "Springcroft",
    "road": "1 Springcroft Drive",
    "location": "GLASGOW",
    "postcode": "G69 6SF",
    "address": "1 Springcroft Drive GLASGOW G69 6SF",
    "coordinates": "55.8566946, -4.1198421",
    "lat": 55.8566946,
    "lng": -4.1198421
  },
  {
    "name": "St Bernards Grange",
    "road": "Barrows Lane",
    "location": "BIRMINGHAM",
    "postcode": "B26 1QJ",
    "address": "Barrows Lane BIRMINGHAM B26 1QJ",
    "coordinates": "52.4629392, -1.7938012",
    "lat": 52.4629392,
    "lng": -1.7938012
  },
  {
    "name": "Stag & Hounds",
    "road": "371 Bury Street West",
    "location": "LONDON",
    "postcode": "N9 9JW",
    "address": "371 Bury Street West LONDON N9 9JW",
    "coordinates": "51.6346956, -0.0764726",
    "lat": 51.6346956,
    "lng": -0.0764726
  },
  {
    "name": "Stag & Three Horseshoes",
    "road": "Halesowen Road",
    "location": "BIRMINGHAM",
    "postcode": "B62 9BB",
    "address": "Halesowen Road BIRMINGHAM B62 9BB",
    "coordinates": "52.4620212, -2.026244",
    "lat": 52.4620212,
    "lng": -2.026244
  },
  {
    "name": "Stag Inn",
    "road": "226 Orrell Road",
    "location": "WIGAN",
    "postcode": "WN5 8QU",
    "address": "226 Orrell Road WIGAN WN5 8QU",
    "coordinates": "53.5401762, -2.7043905",
    "lat": 53.5401762,
    "lng": -2.7043905
  },
  {
    "name": "Stanley Arms",
    "road": "42 Roby Road",
    "location": "LIVERPOOL",
    "postcode": "L36 4HF",
    "address": "42 Roby Road LIVERPOOL L36 4HF",
    "coordinates": "53.4088964, -2.8529692",
    "lat": 53.4088964,
    "lng": -2.8529692
  },
  {
    "name": "Star Hotel",
    "road": "Lichfield Road",
    "location": "BURNTWOOD",
    "postcode": "WS7 0HJ",
    "address": "Lichfield Road BURNTWOOD WS7 0HJ",
    "coordinates": "52.6767695, -1.9032743",
    "lat": 52.6767695,
    "lng": -1.9032743
  },
  {
    "name": "Station",
    "road": "1-3 Fleet Road",
    "location": "FLEET",
    "postcode": "GU51 3QJ",
    "address": "1-3 Fleet Road FLEET GU51 3QJ",
    "coordinates": "51.2901961, -0.832962",
    "lat": 51.2901961,
    "lng": -0.832962
  },
  {
    "name": "Station",
    "road": "70 Otley Road",
    "location": "LEEDS",
    "postcode": "LS20 8BH",
    "address": "70 Otley Road LEEDS LS20 8BH",
    "coordinates": "53.8742406, -1.7133448",
    "lat": 53.8742406,
    "lng": -1.7133448
  },
  {
    "name": "Stenson Fields",
    "road": "Pilgrims Way",
    "location": "DERBY",
    "postcode": "DE24 3JG",
    "address": "Pilgrims Way DERBY DE24 3JG",
    "coordinates": "52.8766513, -1.5041484",
    "lat": 52.8766513,
    "lng": -1.5041484
  },
  {
    "name": "Stone House",
    "road": "Lighthouse Road",
    "location": "NEWPORT",
    "postcode": "NP10 8TG",
    "address": "Lighthouse Road NEWPORT NP10 8TG",
    "coordinates": "51.565763, -3.0179726",
    "lat": 51.565763,
    "lng": -3.0179726
  },
  {
    "name": "Stone Trough",
    "road": "Harrogate Road",
    "location": "LEEDS",
    "postcode": "LS19 6LP",
    "address": "Harrogate Road LEEDS LS19 6LP",
    "coordinates": "53.8565699, -1.6805837",
    "lat": 53.8565699,
    "lng": -1.6805837
  },
  {
    "name": "Sun",
    "road": "719 Leeds Road",
    "location": "WAKEFIELD",
    "postcode": "WF3 3HF",
    "address": "719 Leeds Road WAKEFIELD WF3 3HF",
    "coordinates": "53.7163844, -1.496729",
    "lat": 53.7163844,
    "lng": -1.496729
  },
  {
    "name": "Sussex Hotel",
    "road": "17 St Catherines Terrace",
    "location": "E SUSSEX",
    "postcode": "BN3 2RH",
    "address": "17 St Catherines Terrace E SUSSEX BN3 2RH",
    "coordinates": "50.8254354, -0.176238",
    "lat": 50.8254354,
    "lng": -0.176238
  },
  {
    "name": "Sutton Park Hotel",
    "road": "1 Boldmere Road",
    "location": "SUTTON COLDFIELD",
    "postcode": "B73 5UY",
    "address": "1 Boldmere Road SUTTON COLDFIELD B73 5UY",
    "coordinates": "52.5503679, -1.8412833",
    "lat": 52.5503679,
    "lng": -1.8412833
  },
  {
    "name": "Swan",
    "road": "2 Holm Lane",
    "location": "PRENTON",
    "postcode": "CH43 2HP",
    "address": "2 Holm Lane PRENTON CH43 2HP",
    "coordinates": "53.3722562, -3.0583746",
    "lat": 53.3722562,
    "lng": -3.0583746
  },
  {
    "name": "Swan",
    "road": "London Road",
    "location": "NEWBURY",
    "postcode": "RG14 2DA",
    "address": "London Road NEWBURY RG14 2DA",
    "coordinates": "51.4040037, -1.3018754",
    "lat": 51.4040037,
    "lng": -1.3018754
  },
  {
    "name": "Talbot Inn",
    "road": "33 London Road",
    "location": "MILTON KEYNES",
    "postcode": "MK5 8AB",
    "address": "33 London Road MILTON KEYNES MK5 8AB",
    "coordinates": "52.02721589999999, -0.7871334",
    "lat": 52.0272159,
    "lng": -0.7871334
  },
  {
    "name": "Tall Ships",
    "road": "Middle Warren Local Centre",
    "location": "HARTLEPOOL",
    "postcode": "TS26 0BF",
    "address": "Middle Warren Local Centre HARTLEPOOL TS26 0BF",
    "coordinates": "54.7067407, -1.2492221",
    "lat": 54.7067407,
    "lng": -1.2492221
  },
  {
    "name": "Tennents Bar",
    "road": "191 Byres Road",
    "location": "GLASGOW",
    "postcode": "G12 8TN",
    "address": "191 Byres Road GLASGOW G12 8TN",
    "coordinates": "55.8742467, -4.295050799999999",
    "lat": 55.8742467,
    "lng": -4.2950508
  },
  {
    "name": "Thatched House",
    "road": "Ball Street",
    "location": "POULTON-LE-FYLDE",
    "postcode": "FY6 7BG",
    "address": "Ball Street POULTON-LE-FYLDE FY6 7BG",
    "coordinates": "53.8474813, -2.992089",
    "lat": 53.8474813,
    "lng": -2.992089
  },
  {
    "name": "The Gables (formerley Pines)",
    "road": "210 Crookston Road",
    "location": "GLASGOW",
    "postcode": "G52 3NF",
    "address": "210 Crookston Road GLASGOW G52 3NF",
    "coordinates": "55.840305, -4.3652207",
    "lat": 55.840305,
    "lng": -4.3652207
  },
  {
    "name": "Three Blackbirds",
    "road": "Blendon Road",
    "location": "BEXLEY",
    "postcode": "DA5 1BX",
    "address": "Blendon Road BEXLEY DA5 1BX",
    "coordinates": "51.4481045, 0.1221137",
    "lat": 51.4481045,
    "lng": 0.1221137
  },
  {
    "name": "Three Blackbirds Inn",
    "road": "Llantarnam",
    "location": "CWMBRAN",
    "postcode": "NP44 3AY",
    "address": "Llantarnam CWMBRAN NP44 3AY",
    "coordinates": "51.62649940000001, -3.0101633",
    "lat": 51.6264994,
    "lng": -3.0101633
  },
  {
    "name": "Three Brooks",
    "road": "Bradley Stoke District Centre",
    "location": "BRISTOL",
    "postcode": "BS32 8EF",
    "address": "Bradley Stoke District Centre BRISTOL BS32 8EF",
    "coordinates": "51.5354237, -2.5478857",
    "lat": 51.5354237,
    "lng": -2.5478857
  },
  {
    "name": "Three Craws",
    "road": "501 Crow Road",
    "location": "GLASGOW",
    "postcode": "G11 7DN",
    "address": "501 Crow Road GLASGOW G11 7DN",
    "coordinates": "55.8824294, -4.326725199999999",
    "lat": 55.8824294,
    "lng": -4.3267252
  },
  {
    "name": "Three Crowns",
    "road": "51 Upper Parliament Street",
    "location": "NOTTINGHAM",
    "postcode": "NG1 6LD",
    "address": "51 Upper Parliament Street NOTTINGHAM NG1 6LD",
    "coordinates": "52.9547386, -1.1517323",
    "lat": 52.9547386,
    "lng": -1.1517323
  },
  {
    "name": "Three Hammers",
    "road": "The Ridgeway",
    "location": "LONDON",
    "postcode": "NW7 4EA",
    "address": "The Ridgeway LONDON NW7 4EA",
    "coordinates": "51.6218611, -0.2337641",
    "lat": 51.6218611,
    "lng": -0.2337641
  },
  {
    "name": "Three Hammers",
    "road": "210 Watford Road",
    "location": "ST ALBANS",
    "postcode": "AL2 3EA",
    "address": "210 Watford Road ST ALBANS AL2 3EA",
    "coordinates": "51.7283038, -0.3599509",
    "lat": 51.7283038,
    "lng": -0.3599509
  },
  {
    "name": "Three Horse Shoes",
    "road": "Doncaster Road",
    "location": "DONCASTER",
    "postcode": "DN3 3NL",
    "address": "Doncaster Road DONCASTER DN3 3NL",
    "coordinates": "53.5080796, -1.0346146",
    "lat": 53.5080796,
    "lng": -1.0346146
  },
  {
    "name": "Three Horseshoes",
    "road": "2102 Coventry Road",
    "location": "BIRMINGHAM",
    "postcode": "B26 3JA",
    "address": "2102 Coventry Road BIRMINGHAM B26 3JA",
    "coordinates": "52.4534378, -1.787499",
    "lat": 52.4534378,
    "lng": -1.787499
  },
  {
    "name": "Three Lums",
    "road": "Lewis Road",
    "location": "ABERDEEN",
    "postcode": "AB16 6TG",
    "address": "Lewis Road ABERDEEN AB16 6TG",
    "coordinates": "57.1541831, -2.176424",
    "lat": 57.1541831,
    "lng": -2.176424
  },
  {
    "name": "Three Magpies Hotel",
    "road": "Bonet Lane",
    "location": "ROTHERHAM",
    "postcode": "S60 5NF",
    "address": "Bonet Lane ROTHERHAM S60 5NF",
    "coordinates": "53.4059651, -1.3779537",
    "lat": 53.4059651,
    "lng": -1.3779537
  },
  {
    "name": "Three Pigeons",
    "road": "820 Wigan Road",
    "location": "BOLTON",
    "postcode": "BL3 4RD",
    "address": "820 Wigan Road BOLTON BL3 4RD",
    "coordinates": "53.561577, -2.4770198",
    "lat": 53.561577,
    "lng": -2.4770198
  },
  {
    "name": "Three Stags",
    "road": "Church Road",
    "location": "WIRRAL",
    "postcode": "CH63 3EA",
    "address": "Church Road WIRRAL CH63 3EA",
    "coordinates": "53.3425627, -3.0042686",
    "lat": 53.3425627,
    "lng": -3.0042686
  },
  {
    "name": "Tollgate",
    "road": "High Road",
    "location": "ROMFORD",
    "postcode": "RM6 6QT",
    "address": "High Road ROMFORD RM6 6QT",
    "coordinates": "51.572181, 0.1411232",
    "lat": 51.572181,
    "lng": 0.1411232
  },
  {
    "name": "Top of The World",
    "road": "Warners End Road",
    "location": "HEMEL HEMPSTEAD",
    "postcode": "HP1 3QF",
    "address": "Warners End Road HEMEL HEMPSTEAD HP1 3QF",
    "coordinates": "51.7563367, -0.4909156",
    "lat": 51.7563367,
    "lng": -0.4909156
  },
  {
    "name": "Towers Inn",
    "road": "636 Walsall Road",
    "location": "BIRMINGHAM",
    "postcode": "B42 1EY",
    "address": "636 Walsall Road BIRMINGHAM B42 1EY",
    "coordinates": "52.5355766, -1.9207404",
    "lat": 52.5355766,
    "lng": -1.9207404
  },
  {
    "name": "Travellers Home",
    "road": "Long Lane",
    "location": "BEXLEY HEATH",
    "postcode": "DA7 5AR",
    "address": "Long Lane BEXLEY HEATH DA7 5AR",
    "coordinates": "51.4636644, 0.1506559",
    "lat": 51.4636644,
    "lng": 0.1506559
  },
  {
    "name": "Travellers Inn",
    "road": "286 The Common",
    "location": "SHEFFIELD",
    "postcode": "S35 9WP",
    "address": "286 The Common SHEFFIELD S35 9WP",
    "coordinates": "53.4413159, -1.4580933",
    "lat": 53.4413159,
    "lng": -1.4580933
  },
  {
    "name": "Travellers Rest",
    "road": "180 Henley Road",
    "location": "READING",
    "postcode": "RG4 5DL",
    "address": "180 Henley Road READING RG4 5DL",
    "coordinates": "51.4710196, -0.9537884",
    "lat": 51.4710196,
    "lng": -0.9537884
  },
  {
    "name": "Treacle Mine",
    "road": "Lodge Lane",
    "location": "ESSEX",
    "postcode": "RM17 5PR",
    "address": "Lodge Lane ESSEX RM17 5PR",
    "coordinates": "51.4942147, 0.321877",
    "lat": 51.4942147,
    "lng": 0.321877
  },
  {
    "name": "Trocadero",
    "road": "Temple Street",
    "location": "BIRMINGHAM",
    "postcode": "B2 5BG",
    "address": "Temple Street BIRMINGHAM B2 5BG",
    "coordinates": "52.4802822, -1.8991069",
    "lat": 52.4802822,
    "lng": -1.8991069
  },
  {
    "name": "Tron",
    "road": "9 Hunter Square",
    "location": "EDINBURGH",
    "postcode": "EH1 1QW",
    "address": "9 Hunter Square EDINBURGH EH1 1QW",
    "coordinates": "55.94961619999999, -3.1880945",
    "lat": 55.9496162,
    "lng": -3.1880945
  },
  {
    "name": "Turmut-Hoer",
    "road": "Mead Road",
    "location": "GLOUCESTER",
    "postcode": "GL4 5GL",
    "address": "Mead Road GLOUCESTER GL4 5GL",
    "coordinates": "51.8465442, -2.1993468",
    "lat": 51.8465442,
    "lng": -2.1993468
  },
  {
    "name": "Turners Mill",
    "road": "Greenstones Road",
    "location": "REDCAR",
    "postcode": "TS10 2RA",
    "address": "Greenstones Road REDCAR TS10 2RA",
    "coordinates": "54.6004974, -1.0578561",
    "lat": 54.6004974,
    "lng": -1.0578561
  },
  {
    "name": "Turnpike",
    "road": "96 Bowring Park Road",
    "location": "LIVERPOOL",
    "postcode": "L14 3PL",
    "address": "96 Bowring Park Road LIVERPOOL L14 3PL",
    "coordinates": "53.4053847, -2.891559500000001",
    "lat": 53.4053847,
    "lng": -2.8915595
  },
  {
    "name": "Turnpike",
    "road": "167 Soundwell Road",
    "location": "BRISTOL",
    "postcode": "BS16 4RS",
    "address": "167 Soundwell Road BRISTOL BS16 4RS",
    "coordinates": "51.4727055, -2.5082781",
    "lat": 51.4727055,
    "lng": -2.5082781
  },
  {
    "name": "Two Brothers",
    "road": "Townhill Way",
    "location": "SOUTHAMPTON",
    "postcode": "SO18 3RA",
    "address": "Townhill Way SOUTHAMPTON SO18 3RA",
    "coordinates": "50.9331268, -1.3528013",
    "lat": 50.9331268,
    "lng": -1.3528013
  },
  {
    "name": "Tyburn House",
    "road": "Kingsbury Road",
    "location": "BIRMINGHAM",
    "postcode": "B35 6AA",
    "address": "Kingsbury Road BIRMINGHAM B35 6AA",
    "coordinates": "52.5199943, -1.7987085",
    "lat": 52.5199943,
    "lng": -1.7987085
  },
  {
    "name": "Tylers Rest",
    "road": "149 Norcot Road",
    "location": "READING",
    "postcode": "RG30 6BS",
    "address": "149 Norcot Road READING RG30 6BS",
    "coordinates": "51.4595691, -1.0254763",
    "lat": 51.4595691,
    "lng": -1.0254763
  },
  {
    "name": "Victoria",
    "road": "Brampton Road",
    "location": "NEWCASTLE UNDER LYME",
    "postcode": "ST5 0SJ",
    "address": "Brampton Road NEWCASTLE UNDER LYME ST5 0SJ",
    "coordinates": "53.0231405, -2.217527",
    "lat": 53.0231405,
    "lng": -2.217527
  },
  {
    "name": "Village Inn",
    "road": "67 Botley Road",
    "location": "SOUTHAMPTON",
    "postcode": "SO31 1AZ",
    "address": "67 Botley Road SOUTHAMPTON SO31 1AZ",
    "coordinates": "50.875769, -1.268612",
    "lat": 50.875769,
    "lng": -1.268612
  },
  {
    "name": "Village Inn",
    "road": "Croescadarn Road",
    "location": "CARDIFF",
    "postcode": "CF23 8AJ",
    "address": "Croescadarn Road CARDIFF CF23 8AJ",
    "coordinates": "51.5310612, -3.1403138",
    "lat": 51.5310612,
    "lng": -3.1403138
  },
  {
    "name": "Wagon & Horses",
    "road": "87a Hucclecote Road",
    "location": "GLOUCESTER",
    "postcode": "GL3 3TP",
    "address": "87a Hucclecote Road GLOUCESTER GL3 3TP",
    "coordinates": "51.8558053, -2.187718",
    "lat": 51.8558053,
    "lng": -2.187718
  },
  {
    "name": "Wallace",
    "road": "Keresley Road",
    "location": "COVENTRY",
    "postcode": "CV6 2JF",
    "address": "Keresley Road COVENTRY CV6 2JF",
    "coordinates": "52.4329072, -1.5313058",
    "lat": 52.4329072,
    "lng": -1.5313058
  },
  {
    "name": "Weavers Mill",
    "road": "Camperdown Leisure Park",
    "location": "DUNDEE",
    "postcode": "DD2 3SQ",
    "address": "Camperdown Leisure Park DUNDEE DD2 3SQ",
    "coordinates": "56.4811336, -3.0231889",
    "lat": 56.4811336,
    "lng": -3.0231889
  },
  {
    "name": "Wernley",
    "road": "Wolverhampton Road",
    "location": "OLDBURY",
    "postcode": "B68 0LR",
    "address": "Wolverhampton Road OLDBURY B68 0LR",
    "coordinates": "52.4709953, -1.9966875",
    "lat": 52.4709953,
    "lng": -1.9966875
  },
  {
    "name": "Westacres",
    "road": "Finchfield Hill",
    "location": "WOLVERHAMPTON",
    "postcode": "WV3 9HP",
    "address": "Finchfield Hill WOLVERHAMPTON WV3 9HP",
    "coordinates": "52.5849487, -2.1718932",
    "lat": 52.5849487,
    "lng": -2.1718932
  },
  {
    "name": "Wheatsheaf",
    "road": "Chobham Road",
    "location": "WOKING",
    "postcode": "GU21 4AL",
    "address": "Chobham Road WOKING GU21 4AL",
    "coordinates": "51.3231442, -0.5594585",
    "lat": 51.3231442,
    "lng": -0.5594585
  },
  {
    "name": "Wheatsheaf",
    "road": "85 Hawthorne Road",
    "location": "BOGNOR REGIS",
    "postcode": "PO21 2BE",
    "address": "85 Hawthorne Road BOGNOR REGIS PO21 2BE",
    "coordinates": "50.7903675, -0.6846482",
    "lat": 50.7903675,
    "lng": -0.6846482
  },
  {
    "name": "Wheatsheaf Inn",
    "road": "Bargate",
    "location": "GRIMSBY",
    "postcode": "DN34 5AD",
    "address": "Bargate GRIMSBY DN34 5AD",
    "coordinates": "53.5565696, -0.0914694",
    "lat": 53.5565696,
    "lng": -0.0914694
  },
  {
    "name": "Wheatsheaf Inn",
    "road": "46 Heath Road",
    "location": "CHESTER",
    "postcode": "CH2 1HX",
    "address": "46 Heath Road CHESTER CH2 1HX",
    "coordinates": "53.2185022, -2.8826271",
    "lat": 53.2185022,
    "lng": -2.8826271
  },
  {
    "name": "White Cross Hotel",
    "road": "Otley Road",
    "location": "LEEDS",
    "postcode": "LS20 8LY",
    "address": "Otley Road LEEDS LS20 8LY",
    "coordinates": "53.8775488, -1.723035",
    "lat": 53.8775488,
    "lng": -1.723035
  },
  {
    "name": "White Hart",
    "road": "Hart Road",
    "location": "BENFLEET",
    "postcode": "SS7 3PF",
    "address": "Hart Road BENFLEET SS7 3PF",
    "coordinates": "51.5690251, 0.5818341",
    "lat": 51.5690251,
    "lng": 0.5818341
  },
  {
    "name": "White Hart",
    "road": "Heywood Old Road",
    "location": "HEYWOOD",
    "postcode": "OL10 2QL",
    "address": "Heywood Old Road HEYWOOD OL10 2QL",
    "coordinates": "53.565766, -2.2258545",
    "lat": 53.565766,
    "lng": -2.2258545
  },
  {
    "name": "White Hart Hotel",
    "road": "London Road",
    "location": "HOOK",
    "postcode": "RG27 9DZ",
    "address": "London Road HOOK RG27 9DZ",
    "coordinates": "51.2836524, -0.9611675",
    "lat": 51.2836524,
    "lng": -0.9611675
  },
  {
    "name": "White Horse",
    "road": "78 High Street",
    "location": "CHELMSFORD",
    "postcode": "CM2 7HH",
    "address": "78 High Street CHELMSFORD CM2 7HH",
    "coordinates": "51.7153808, 0.5013278999999999",
    "lat": 51.7153808,
    "lng": 0.5013279
  },
  {
    "name": "White Horse",
    "road": "Burtree Lane",
    "location": "DARLINGTON",
    "postcode": "DL1 3AD",
    "address": "Burtree Lane DARLINGTON DL1 3AD",
    "coordinates": "54.5541039, -1.5492136",
    "lat": 54.5541039,
    "lng": -1.5492136
  },
  {
    "name": "White Horse",
    "road": "205-213 High Street",
    "location": "BECKENHAM",
    "postcode": "BR3 1AH",
    "address": "205-213 High Street BECKENHAM BR3 1AH",
    "coordinates": "51.4065036, -0.0309665",
    "lat": 51.4065036,
    "lng": -0.0309665
  },
  {
    "name": "White House",
    "road": "Wooler Road",
    "location": "HARTLEPOOL",
    "postcode": "TS26 0DR",
    "address": "Wooler Road HARTLEPOOL TS26 0DR",
    "coordinates": "54.6847854, -1.2348379",
    "lat": 54.6847854,
    "lng": -1.2348379
  },
  {
    "name": "White House",
    "road": "Bosty Lane",
    "location": "WALSALL",
    "postcode": "WS9 0QE",
    "address": "Bosty Lane WALSALL WS9 0QE",
    "coordinates": "52.5956423, -1.933029",
    "lat": 52.5956423,
    "lng": -1.933029
  },
  {
    "name": "White Lion",
    "road": "Farleigh Road",
    "location": "WARLINGHAM",
    "postcode": "CR6 9EG",
    "address": "Farleigh Road WARLINGHAM CR6 9EG",
    "coordinates": "51.3091301, -0.0518052",
    "lat": 51.3091301,
    "lng": -0.0518052
  },
  {
    "name": "White Lion",
    "road": "Passage Road",
    "location": "BRISTOL",
    "postcode": "BS9 3HN",
    "address": "Passage Road BRISTOL BS9 3HN",
    "coordinates": "51.4954439, -2.6169597",
    "lat": 51.4954439,
    "lng": -2.6169597
  },
  {
    "name": "White Lion Hotel",
    "road": "Market Place",
    "location": "AMBLESIDE",
    "postcode": "LA22 9DB",
    "address": "Market Place AMBLESIDE LA22 9DB",
    "coordinates": "54.4315719, -2.962284",
    "lat": 54.4315719,
    "lng": -2.962284
  },
  {
    "name": "White Rose",
    "road": "17 Handsworth Road",
    "location": "SHEFFIELD",
    "postcode": "S9 4AA",
    "address": "17 Handsworth Road SHEFFIELD S9 4AA",
    "coordinates": "53.3826453, -1.4006357",
    "lat": 53.3826453,
    "lng": -1.4006357
  },
  {
    "name": "White Rose",
    "road": "Newton Road",
    "location": "SWANSEA",
    "postcode": "SA3 4AR",
    "address": "Newton Road SWANSEA SA3 4AR",
    "coordinates": "51.575624, -3.9997602",
    "lat": 51.575624,
    "lng": -3.9997602
  },
  {
    "name": "Wigmore Arms",
    "road": "Wigmore Lane",
    "location": "LUTON",
    "postcode": "LU2 9XG",
    "address": "Wigmore Lane LUTON LU2 9XG",
    "coordinates": "51.8878757, -0.3722119",
    "lat": 51.8878757,
    "lng": -0.3722119
  },
  {
    "name": "Wildwood",
    "road": "Wildwood Shopping Centre",
    "location": "STAFFORD",
    "postcode": "ST17 4RA",
    "address": "Wildwood Shopping Centre STAFFORD ST17 4RA",
    "coordinates": "52.7847011, -2.082316",
    "lat": 52.7847011,
    "lng": -2.082316
  },
  {
    "name": "Wilton Arms",
    "road": "Manchester Old Road",
    "location": "MIDDLETON",
    "postcode": "M24 4RF",
    "address": "Manchester Old Road MIDDLETON M24 4RF",
    "coordinates": "53.542209, -2.2331065",
    "lat": 53.542209,
    "lng": -2.2331065
  },
  {
    "name": "Windmill",
    "road": "4 Thorniewood Road",
    "location": "GLASGOW",
    "postcode": "G71 5QQ",
    "address": "4 Thorniewood Road GLASGOW G71 5QQ",
    "coordinates": "55.8314429, -4.0777949",
    "lat": 55.8314429,
    "lng": -4.0777949
  },
  {
    "name": "Windsor",
    "road": "33 Cannon Street",
    "location": "BIRMINGHAM",
    "postcode": "B2 5EE",
    "address": "33 Cannon Street BIRMINGHAM B2 5EE",
    "coordinates": "52.4797735, -1.8981927",
    "lat": 52.4797735,
    "lng": -1.8981927
  },
  {
    "name": "Woodcock",
    "road": "Whitehall Road",
    "location": "LEEDS",
    "postcode": "LS12 5HR",
    "address": "Whitehall Road LEEDS LS12 5HR",
    "coordinates": "53.769905, -1.6345936",
    "lat": 53.769905,
    "lng": -1.6345936
  },
  {
    "name": "Woodland",
    "road": "Chester Road",
    "location": "ELLESMERE PORT",
    "postcode": "CH66 2LJ",
    "address": "Chester Road ELLESMERE PORT CH66 2LJ",
    "coordinates": "53.2637898, -2.9104407",
    "lat": 53.2637898,
    "lng": -2.9104407
  },
  {
    "name": "Woodman",
    "road": "238 Barnett Wood Lane",
    "location": "SURREY",
    "postcode": "KT21 2DA",
    "address": "238 Barnett Wood Lane SURREY KT21 2DA",
    "coordinates": "51.3142764, -0.307936",
    "lat": 51.3142764,
    "lng": -0.307936
  },
  {
    "name": "Woodmans Rest",
    "road": "Union Road",
    "location": "BIRMINGHAM",
    "postcode": "B90 3DB",
    "address": "Union Road BIRMINGHAM B90 3DB",
    "coordinates": "52.4044282, -1.8144516",
    "lat": 52.4044282,
    "lng": -1.8144516
  },
  {
    "name": "Woodpecker",
    "road": "179 London Road",
    "location": "WATERLOOVILLE",
    "postcode": "PO7 7RL",
    "address": "179 London Road WATERLOOVILLE PO7 7RL",
    "coordinates": "50.8853144, -1.0273523",
    "lat": 50.8853144,
    "lng": -1.0273523
  },
  {
    "name": "Woolpack",
    "road": "Acorn Way",
    "location": "TELFORD",
    "postcode": "TF5 0LW",
    "address": "Acorn Way TELFORD TF5 0LW",
    "coordinates": "52.7179798, -2.531664",
    "lat": 52.7179798,
    "lng": -2.531664
  },
  {
    "name": "Wrose Bull Hotel",
    "road": "Wrose Road",
    "location": "SHIPLEY",
    "postcode": "BD18 1JF",
    "address": "Wrose Road SHIPLEY BD18 1JF",
    "coordinates": "53.8287235, -1.7611077",
    "lat": 53.8287235,
    "lng": -1.7611077
  },
  {
    "name": "Wulstan",
    "road": "Dimsdale Parade East",
    "location": "NEWCASTLE UNDER LYME",
    "postcode": "ST5 8BU",
    "address": "Dimsdale Parade East NEWCASTLE UNDER LYME ST5 8BU",
    "coordinates": "53.0317202, -2.2246759",
    "lat": 53.0317202,
    "lng": -2.2246759
  },
  {
    "name": "Yenton",
    "road": "Sutton Road",
    "location": "BIRMINGHAM",
    "postcode": "B23 5TW",
    "address": "Sutton Road BIRMINGHAM B23 5TW",
    "coordinates": "52.5335663, -1.8289244",
    "lat": 52.5335663,
    "lng": -1.8289244
  },
  {
    "name": "Yeoman",
    "road": "700 Wells Road",
    "location": "BRISTOL",
    "postcode": "BS14 9HX",
    "address": "700 Wells Road BRISTOL BS14 9HX",
    "coordinates": "51.4135089, -2.5592138",
    "lat": 51.4135089,
    "lng": -2.5592138
  }
]
