[
  {
    "name": "108 RATHGAR ROAD",
    "location": "DUBLIN",
    "postcode": "D06 F6H9",
    "coordinates": "53.3121042, -6.2757187",
    "lat": "53.3121042",
    "lng": -6.2757187
  },
  {
    "name": "4 DAME LANE",
    "location": "4 Dame Ln, Dublin 2, D02 YD79",
    "postcode": "D02 YD79",
    "coordinates": "53.3438497, -6.2633195",
    "lat": "53.3438497",
    "lng": -6.2633195
  },
  {
    "name": "37 Dawson St",
    "location": "37 Dawson St, Dublin, D02 W220",
    "postcode": "D02 W220",
    "coordinates": "53.340554, -6.2589559",
    "lat": "53.340554",
    "lng": -6.2589559
  },
  {
    "name": "The 51 Bar",
    "location": "51 Haddington Rd, Dublin 4, D04 FD83",
    "postcode": "D04 FD83",
    "coordinates": "53.3346522, -6.2425906",
    "lat": "53.3346522",
    "lng": -6.2425906
  },
  {
    "name": "37 DAWSON STREET",
    "location": "DUBLIN CITY",
    "postcode": "D02 W220",
    "coordinates": "53.3405023, -6.2586811",
    "lat": "53.3405023",
    "lng": -6.2586811
  },
  {
    "name": "51 BAR",
    "location": "DUBLIN CITY",
    "postcode": "D04 FD83",
    "coordinates": "53.3346508, -6.2424597",
    "lat": "53.3346508",
    "lng": -6.2424597
  },
  {
    "name": "ABBEY BAR & RESTAURANT",
    "location": "ENNIS",
    "postcode": "V95 F400",
    "coordinates": "52.8455928, -8.9820376",
    "lat": "52.8455928",
    "lng": -8.9820376
  },
  {
    "name": "ABBEY HOTEL DONEGAL",
    "location": "DONEGAL",
    "postcode": "F94 AP8W",
    "coordinates": "54.65375, -8.111011399999999",
    "lat": "54.65375",
    "lng": -8.1110114
  },
  {
    "name": "ABBEY TAVERN",
    "location": "CORK",
    "postcode": "T12 DF70",
    "coordinates": "51.8938718, -8.4828776",
    "lat": "51.8938718",
    "lng": -8.4828776
  },
  {
    "name": "ANCHOR INN",
    "location": "KILLALOE",
    "postcode": "V94 TRD7",
    "coordinates": "52.8071372, -8.4402703",
    "lat": "52.8071372",
    "lng": -8.4402703
  },
  {
    "name": "ANGLERS",
    "location": "CARRIGROHANE",
    "postcode": "T12 DEH0",
    "coordinates": "51.89859550000001, -8.5726848",
    "lat": "51.8985955",
    "lng": -8.5726848
  },
  {
    "name": "ANSEO",
    "location": "DUBLIN 2",
    "postcode": "D02 WK72",
    "coordinates": "53.3353161, -6.264968199999999",
    "lat": "53.3353161",
    "lng": -6.2649682
  },
  {
    "name": "ATHGARVAN INN",
    "location": "NEWBRIDGE",
    "postcode": "W12 PK00",
    "coordinates": "53.1530607, -6.777540999999999",
    "lat": "53.1530607",
    "lng": -6.777541
  },
  {
    "name": "BALD EAGLE",
    "location": "PHIBSBOROUGH",
    "postcode": "D07 VX23",
    "coordinates": "53.3640147, -6.271776",
    "lat": "53.3640147",
    "lng": -6.271776
  },
  {
    "name": "BALL ALLEY HOUSE",
    "location": "LUCAN",
    "postcode": "K78 X5A0",
    "coordinates": "53.3554566, -6.4546775",
    "lat": "53.3554566",
    "lng": -6.4546775
  },
  {
    "name": "BANK",
    "location": "DONEGAL TOWN",
    "postcode": "F94 EK63",
    "coordinates": "54.6533696, -8.111037699999999",
    "lat": "54.6533696",
    "lng": -8.1110377
  },
  {
    "name": "BANNIGANS BAR",
    "location": "LIFFORD",
    "postcode": "F93 HC65",
    "coordinates": "54.832832, -7.480737",
    "lat": "54.832832",
    "lng": -7.480737
  },
  {
    "name": "BATES RESTAURANT",
    "location": "WICKLOW",
    "postcode": "A67 AK15",
    "coordinates": "52.93085379999999, -6.23115",
    "lat": "52.9308538",
    "lng": -6.23115
  },
  {
    "name": "BECKY MORGANS",
    "location": "DUBLIN",
    "postcode": "D02 XD98",
    "coordinates": "53.3396997, -6.242171900000001",
    "lat": "53.3396997",
    "lng": -6.2421719
  },
  {
    "name": "BEEHIVE BAR",
    "location": "ARDARA",
    "postcode": "F94 WY6P",
    "coordinates": "54.76194719999999, -8.4145089",
    "lat": "54.7619472",
    "lng": -8.4145089
  },
  {
    "name": "BELFRY",
    "location": "STONEYBATTER",
    "postcode": "D07 X029",
    "coordinates": "53.35039010000001, -6.282057000000001",
    "lat": "53.3503901",
    "lng": -6.282057
  },
  {
    "name": "BERTIES",
    "location": "YOUGHAL",
    "postcode": "P36 D262",
    "coordinates": "51.9566645, -7.8513615",
    "lat": "51.9566645",
    "lng": -7.8513615
  },
  {
    "name": "BIRCH AND CO",
    "location": "DUNDULK",
    "postcode": "A91 NCN9",
    "coordinates": null,
    "lat": null,
    "lng": null
  },
  {
    "name": "BLACK WOLF",
    "location": "BLANCHARDSTOWN",
    "postcode": "D15 V2OW",
    "coordinates": null,
    "lat": null,
    "lng": null
  },
  {
    "name": "BLACKSWAN",
    "location": "LIMERICK",
    "postcode": "V94 W6F8",
    "coordinates": "52.6682836, -8.5294204",
    "lat": "52.6682836",
    "lng": -8.5294204
  },
  {
    "name": "BLAINROE GOLF CLUB",
    "location": "BLAINROE",
    "postcode": "A67 YY01",
    "coordinates": "52.9450306, -6.0176481",
    "lat": "52.9450306",
    "lng": -6.0176481
  },
  {
    "name": "BLEEDING HORSE",
    "location": "DUBLIN CITY",
    "postcode": "D02 NP22",
    "coordinates": "53.3334777, -6.2648192",
    "lat": "53.3334777",
    "lng": -6.2648192
  },
  {
    "name": "BONNYGLEN KITCHEN BAR AND GUESTHOUS",
    "location": "FROSSES",
    "postcode": "F94 CK80",
    "coordinates": "54.6661146, -8.2613655",
    "lat": "54.6661146",
    "lng": -8.2613655
  },
  {
    "name": "BONOBO",
    "location": "SMITHFIELD",
    "postcode": "D07 HP5F",
    "coordinates": "53.3503528, -6.2747132",
    "lat": "53.3503528",
    "lng": -6.2747132
  },
  {
    "name": "BOYLANS",
    "location": "ARDEE",
    "postcode": "A92 H006",
    "coordinates": "53.857249, -6.5402022",
    "lat": "53.857249",
    "lng": -6.5402022
  },
  {
    "name": "BRACKEN COURT HOTEL",
    "location": "DUBLIN",
    "postcode": "K32 D521",
    "coordinates": "53.6089273, -6.1829431",
    "lat": "53.6089273",
    "lng": -6.1829431
  },
  {
    "name": "BRADSHAWS BAR",
    "location": "CASTLECONNELL",
    "postcode": "V94 D2T8",
    "coordinates": "52.71347609999999, -8.501641099999999",
    "lat": "52.7134761",
    "lng": -8.5016411
  },
  {
    "name": "BRADYS CLOCKHOUSE",
    "location": "MAYNOOTH",
    "postcode": "W23 PY93",
    "coordinates": "53.38152849999999, -6.5903968",
    "lat": "53.3815285",
    "lng": -6.5903968
  },
  {
    "name": "BRADYS TERENURE",
    "location": "DUBLIN",
    "postcode": "D6W TX40",
    "coordinates": "53.3098218, -6.2842348",
    "lat": "53.3098218",
    "lng": -6.2842348
  },
  {
    "name": "BRAZEN MONKEY",
    "location": "ATHLONE",
    "postcode": "N37 X640",
    "coordinates": "53.42325959999999, -7.9377814",
    "lat": "53.4232596",
    "lng": -7.9377814
  },
  {
    "name": "BRIAN MULDOONS ARDEE",
    "location": "ARDEE",
    "postcode": "A92 C4HE",
    "coordinates": null,
    "lat": null,
    "lng": null
  },
  {
    "name": "BRIDGE BAR",
    "location": "TUAM",
    "postcode": "H54 Y962",
    "coordinates": "53.5163471, -8.8522851",
    "lat": "53.5163471",
    "lng": -8.8522851
  },
  {
    "name": "BROGANS",
    "location": "KILKENNY CITY",
    "postcode": "R95 VY47",
    "coordinates": "52.6535904, -7.2479004",
    "lat": "52.6535904",
    "lng": -7.2479004
  },
  {
    "name": "BROGANS BAR",
    "location": "ENNIS",
    "postcode": "V95 XRW8",
    "coordinates": "52.8435073, -8.9826739",
    "lat": "52.8435073",
    "lng": -8.9826739
  },
  {
    "name": "BRUBAKERS",
    "location": "DUNDULK",
    "postcode": "A91 Y9HN",
    "coordinates": "54.0018134, -6.404696",
    "lat": "54.0018134",
    "lng": -6.404696
  },
  {
    "name": "BSKEWERS BAR AND RESTAURANT",
    "location": "DUBLIN",
    "postcode": "D02 XV00",
    "coordinates": "53.3447913, -6.263883799999999",
    "lat": "53.3447913",
    "lng": -6.2638838
  },
  {
    "name": "BUCK MULLIGANS",
    "location": "DUN LAOGHAIRE",
    "postcode": "A96 YV10",
    "coordinates": "53.2947742, -6.1416205",
    "lat": "53.2947742",
    "lng": -6.1416205
  },
  {
    "name": "BUCKOS",
    "location": "CASTLEBAR",
    "postcode": "F23 YC66",
    "coordinates": "53.85799840000001, -9.2978543",
    "lat": "53.8579984",
    "lng": -9.2978543
  },
  {
    "name": "BUNGALOW BAR",
    "location": "CASTLEBAR",
    "postcode": "F23 A248",
    "coordinates": "53.85757049999999, -9.2978272",
    "lat": "53.8575705",
    "lng": -9.2978272
  },
  {
    "name": "BUSKERS BAR",
    "location": "DUBLIN CITY",
    "postcode": "D02 WD51",
    "coordinates": "53.3458353, -6.2603909",
    "lat": "53.3458353",
    "lng": -6.2603909
  },
  {
    "name": "BUTLER AND BARRY",
    "location": "BRAY",
    "postcode": "A98 N8N3",
    "coordinates": "53.203377, -6.098141399999999",
    "lat": "53.203377",
    "lng": -6.0981414
  },
  {
    "name": "CAFFREYS",
    "location": "DUNBOYNE",
    "postcode": "A86 HVO4",
    "coordinates": "53.46864420000001, -6.5363009",
    "lat": "53.4686442",
    "lng": -6.5363009
  },
  {
    "name": "CAMDEN EXCHANGE",
    "location": "DUBLIN CITY",
    "postcode": "D02 E092",
    "coordinates": "53.33507359999999, -6.2655485",
    "lat": "53.3350736",
    "lng": -6.2655485
  },
  {
    "name": "CAPTAIN HOUSE",
    "location": "TULLAMORE",
    "postcode": "R35 F6W7",
    "coordinates": "53.2749405, -7.4962605",
    "lat": "53.2749405",
    "lng": -7.4962605
  },
  {
    "name": "CARIBOU BAR",
    "location": "GALWAY",
    "postcode": "H91 T6NH",
    "coordinates": "53.2756183, -9.0524502",
    "lat": "53.2756183",
    "lng": -9.0524502
  },
  {
    "name": "CARPENTERS",
    "location": "CARLOW",
    "postcode": "R93 R1X2",
    "coordinates": "52.8351462, -6.9259187",
    "lat": "52.8351462",
    "lng": -6.9259187
  },
  {
    "name": "CARRICK BEG INN",
    "location": "CARRICK ON SUIR",
    "postcode": "E32 P226",
    "coordinates": "52.3432518, -7.4159804",
    "lat": "52.3432518",
    "lng": -7.4159804
  },
  {
    "name": "CASA DEL TORO",
    "location": "DUBLIN",
    "postcode": "D09 A6K7",
    "coordinates": "53.37155600000001, -6.2529714",
    "lat": "53.371556",
    "lng": -6.2529714
  },
  {
    "name": "CASTLEKNOCK HOTEL AND COUNTRY CLUB",
    "location": "CASTLEKNOCK",
    "postcode": "D15 WNR7",
    "coordinates": "53.3659705, -6.3897907",
    "lat": "53.3659705",
    "lng": -6.3897907
  },
  {
    "name": "CASTLETOWN INN",
    "location": "CELBRIDGE",
    "postcode": "W23 F5W5",
    "coordinates": "53.3402351, -6.538399",
    "lat": "53.3402351",
    "lng": -6.538399
  },
  {
    "name": "CASTLETROY PARK HOTEL",
    "location": "LIMERICK",
    "postcode": "V94 Y0AN",
    "coordinates": "52.6668635, -8.576923899999999",
    "lat": "52.6668635",
    "lng": -8.5769239
  },
  {
    "name": "CENTER PARCS IRELAND VILLAGE",
    "location": "BALLYMAHON",
    "postcode": "N39 RH95",
    "coordinates": "53.551865, -7.704246899999999",
    "lat": "53.551865",
    "lng": -7.7042469
  },
  {
    "name": "CENTRAL BAR",
    "location": "LETTERKENNY",
    "postcode": "F92 T2C5",
    "coordinates": "54.9512368, -7.7365466",
    "lat": "54.9512368",
    "lng": -7.7365466
  },
  {
    "name": "CENTRAL LOUNGE",
    "location": "BALBRIGGAN",
    "postcode": "K32 VK57",
    "coordinates": "53.609615, -6.1836645",
    "lat": "53.609615",
    "lng": -6.1836645
  },
  {
    "name": "CHASIN BULL",
    "location": "BUNDORAN",
    "postcode": "F94 YC81",
    "coordinates": "54.480246, -8.2752036",
    "lat": "54.480246",
    "lng": -8.2752036
  },
  {
    "name": "CHEEKY PIGLET",
    "location": "DUBLIN",
    "postcode": "D08 CPW3",
    "coordinates": "53.3374367, -6.274189499999999",
    "lat": "53.3374367",
    "lng": -6.2741895
  },
  {
    "name": "CHEERS",
    "location": "BALLYBOFEY",
    "postcode": "F93 FF60",
    "coordinates": "54.7993291, -7.7818043",
    "lat": "54.7993291",
    "lng": -7.7818043
  },
  {
    "name": "CLONSKEAGH HOUSE",
    "location": "CLONSKEAGH",
    "postcode": "D06 EH93",
    "coordinates": "53.31411989999999, -6.2387424",
    "lat": "53.3141199",
    "lng": -6.2387424
  },
  {
    "name": "CLUB DALKEY",
    "location": "DALKEY",
    "postcode": "A96 HX75",
    "coordinates": "53.2772872, -6.1026246",
    "lat": "53.2772872",
    "lng": -6.1026246
  },
  {
    "name": "COLUMBIA # MULLINGAR",
    "location": "MULLINGAR",
    "postcode": "N91 NX73",
    "coordinates": "53.5253103, -7.341489500000001",
    "lat": "53.5253103",
    "lng": -7.3414895
  },
  {
    "name": "COMET",
    "location": "SANTRY",
    "postcode": "D09 YW35",
    "coordinates": "53.3884706, -6.2461556",
    "lat": "53.3884706",
    "lng": -6.2461556
  },
  {
    "name": "COMMERCIAL",
    "location": "LIMERICK",
    "postcode": "V94 T2V3",
    "coordinates": "52.6608639, -8.628154",
    "lat": "52.6608639",
    "lng": -8.628154
  },
  {
    "name": "CONCORDE",
    "location": "DUBLIN",
    "postcode": "D05 A2A8",
    "coordinates": "53.3889137, -6.181051399999999",
    "lat": "53.3889137",
    "lng": -6.1810514
  },
  {
    "name": "COOPERS CORNER",
    "location": "KILMAINHAM",
    "postcode": "D08 H1W6",
    "coordinates": "53.3424268, -6.2967803",
    "lat": "53.3424268",
    "lng": -6.2967803
  },
  {
    "name": "COUNIHANS",
    "location": "CORK",
    "postcode": "T12 HK12",
    "coordinates": "51.8977814, -8.469990899999999",
    "lat": "51.8977814",
    "lng": -8.4699909
  },
  {
    "name": "COURTHOUSE TAVERN",
    "location": "CORK CITY",
    "postcode": "T12 XH42",
    "coordinates": "51.8980496, -8.478273699999999",
    "lat": "51.8980496",
    "lng": -8.4782737
  },
  {
    "name": "CRACK JENNY TAVERN",
    "location": "CORK CITY",
    "postcode": "T12 K20P",
    "coordinates": "51.9002459, -8.471362",
    "lat": "51.9002459",
    "lng": -8.471362
  },
  {
    "name": "CROSSED KEYS",
    "location": "MULLINGAR",
    "postcode": "N91 V2T8",
    "coordinates": "53.5258589, -7.3366262",
    "lat": "53.5258589",
    "lng": -7.3366262
  },
  {
    "name": "CROSSROADS",
    "location": "SHANNON",
    "postcode": "V14 Y279",
    "coordinates": "52.7005564, -8.8954385",
    "lat": "52.7005564",
    "lng": -8.8954385
  },
  {
    "name": "CROWN BAR",
    "location": "WEXFORD",
    "postcode": "Y35 XC95",
    "coordinates": "52.3414545, -6.462951800000001",
    "lat": "52.3414545",
    "lng": -6.4629518
  },
  {
    "name": "CRUDO",
    "location": "DUBLIN",
    "postcode": "D04 DH32",
    "coordinates": "53.33303489999999, -6.2150601",
    "lat": "53.3330349",
    "lng": -6.2150601
  },
  {
    "name": "CUCHULAINN",
    "location": "DUBLIN",
    "postcode": "D15 VK64",
    "coordinates": "53.3960038, -6.4400843",
    "lat": "53.3960038",
    "lng": -6.4400843
  },
  {
    "name": "CULLETONS BAR",
    "location": "ROSSLARE",
    "postcode": "Y35 PK49",
    "coordinates": "52.2419273, -6.355738",
    "lat": "52.2419273",
    "lng": -6.355738
  },
  {
    "name": "D.S. GOALPOST TAVERNS LTD",
    "location": "TULLAMORE",
    "postcode": "R35 YY04",
    "coordinates": "53.2772041, -7.491330899999999",
    "lat": "53.2772041",
    "lng": -7.4913309
  },
  {
    "name": "DAKOTA",
    "location": "DUBLIN",
    "postcode": "D02 ND76",
    "coordinates": "53.3426431, -6.2623923",
    "lat": "53.3426431",
    "lng": -6.2623923
  },
  {
    "name": "DALKEY DUCK",
    "location": "DUBLIN",
    "postcode": "A96 RY62",
    "coordinates": "53.278004, -6.1072454",
    "lat": "53.278004",
    "lng": -6.1072454
  },
  {
    "name": "DAPPER DUCK",
    "location": "GURTEEN",
    "postcode": "F56 EW84",
    "coordinates": "53.9934264, -8.5158955",
    "lat": "53.9934264",
    "lng": -8.5158955
  },
  {
    "name": "DAWSON LOUNGE",
    "location": "DUBLIN CITY",
    "postcode": "D02 XT59",
    "coordinates": "53.33973510000001, -6.25888",
    "lat": "53.3397351",
    "lng": -6.25888
  },
  {
    "name": "DELANEYS",
    "location": "DUBLIN",
    "postcode": "D07 PF51",
    "coordinates": "53.3498047, -6.2785113",
    "lat": "53.3498047",
    "lng": -6.2785113
  },
  {
    "name": "DEVILS CUT",
    "location": "INCHICORE",
    "postcode": "D08 E086",
    "coordinates": "53.3402519, -6.314696400000001",
    "lat": "53.3402519",
    "lng": -6.3146964
  },
  {
    "name": "DICEY REILLYS BAR",
    "location": "BALLYSHANNON",
    "postcode": "F94 FY61",
    "coordinates": "54.5028373, -8.1900757",
    "lat": "54.5028373",
    "lng": -8.1900757
  },
  {
    "name": "DOCKYARD 8",
    "location": "BRAY",
    "postcode": "A98 HH31",
    "coordinates": "53.2075241, -6.1023112",
    "lat": "53.2075241",
    "lng": -6.1023112
  },
  {
    "name": "DOH PIZZA",
    "location": "LIMERICK",
    "postcode": "V94 HW93",
    "coordinates": "52.66211879999999, -8.6282389",
    "lat": "52.6621188",
    "lng": -8.6282389
  },
  {
    "name": "DOH PROPER PIZZA",
    "location": "CASTLETROY",
    "postcode": "V94 YW32",
    "coordinates": "52.6679872, -8.555867899999999",
    "lat": "52.6679872",
    "lng": -8.5558679
  },
  {
    "name": "DOYLES BAR",
    "location": "LONGFORD",
    "postcode": "N39 R6F4",
    "coordinates": "53.72658819999999, -7.797222",
    "lat": "53.7265882",
    "lng": -7.797222
  },
  {
    "name": "EARLEYS BAR SLIGO TOWN",
    "location": "SLIGO",
    "postcode": "F91 TX85",
    "coordinates": "54.2721386, -8.4717365",
    "lat": "54.2721386",
    "lng": -8.4717365
  },
  {
    "name": "ELECTRIC",
    "location": "CORK CITY",
    "postcode": "T12 TC96",
    "coordinates": "51.89612770000001, -8.473344599999999",
    "lat": "51.8961277",
    "lng": -8.4733446
  },
  {
    "name": "ELENORA",
    "location": "DUBLIN",
    "postcode": "D12 F6NY",
    "coordinates": "53.32409819999999, -6.3254947",
    "lat": "53.3240982",
    "lng": -6.3254947
  },
  {
    "name": "EMIGRANTS REST",
    "location": "CLONMEL",
    "postcode": "E91 FH73",
    "coordinates": "52.3491046, -7.704740800000001",
    "lat": "52.3491046",
    "lng": -7.7047408
  },
  {
    "name": "FALLONS",
    "location": "MERCHANTS QUAY",
    "postcode": "D08 NP52",
    "coordinates": "53.3389694, -6.2734065",
    "lat": "53.3389694",
    "lng": -6.2734065
  },
  {
    "name": "FARMER BROWNS PUB AND RESTAURANT",
    "location": "DUBLIN",
    "postcode": "D18 TP30",
    "coordinates": "53.2395526, -6.196837599999999",
    "lat": "53.2395526",
    "lng": -6.1968376
  },
  {
    "name": "FEGANS 1924",
    "location": "DUBLIN",
    "postcode": "D07 A275",
    "coordinates": "53.3469434, -6.2720349",
    "lat": "53.3469434",
    "lng": -6.2720349
  },
  {
    "name": "FERRYMAN",
    "location": "DUBLIN",
    "postcode": "D02 E448",
    "coordinates": "53.3460121, -6.240801500000001",
    "lat": "53.3460121",
    "lng": -6.2408015
  },
  {
    "name": "FIBBER MCGEES BAR",
    "location": "GALWAY CITY",
    "postcode": "H91 D328",
    "coordinates": "53.2749777, -9.0488388",
    "lat": "53.2749777",
    "lng": -9.0488388
  },
  {
    "name": "FITZGERALDS",
    "location": "DUBLIN",
    "postcode": "D02 FH28",
    "coordinates": "53.3466432, -6.2596806",
    "lat": "53.3466432",
    "lng": -6.2596806
  },
  {
    "name": "FITZGERALDS BAR KILLMALLOCK",
    "location": "KILMALLOCK",
    "postcode": "V35 KX45",
    "coordinates": "52.3988088, -8.572953499999999",
    "lat": "52.3988088",
    "lng": -8.5729535
  },
  {
    "name": "FITZPATRICK CASTLE HOTEL",
    "location": "KILLINEY",
    "postcode": "",
    "coordinates": null,
    "lat": null,
    "lng": null
  },
  {
    "name": "FITZPATRICKS BAR",
    "location": "WICKLOW TOWN",
    "postcode": "A67 D656",
    "coordinates": "52.9806037, -6.0442955",
    "lat": "52.9806037",
    "lng": -6.0442955
  },
  {
    "name": "FITZWILLIAM HOTEL",
    "location": "DUBLIN",
    "postcode": "D02 HE18",
    "coordinates": "53.3394021, -6.2614244",
    "lat": "53.3394021",
    "lng": -6.2614244
  },
  {
    "name": "FLASH HARRYS BLACKROCK",
    "location": "BLACKROCK",
    "postcode": "A94",
    "coordinates": null,
    "lat": null,
    "lng": null
  },
  {
    "name": "FLOWING TIDE",
    "location": "DUBLIN",
    "postcode": "D01 H6P1",
    "coordinates": "53.3488293, -6.257815799999999",
    "lat": "53.3488293",
    "lng": -6.2578158
  },
  {
    "name": "FLYING DUCK",
    "location": "DUNDRUM",
    "postcode": "D16 W0C0",
    "coordinates": "53.2879365, -6.2435993",
    "lat": "53.2879365",
    "lng": -6.2435993
  },
  {
    "name": "FLYNNS BAR",
    "location": "CASTLEBAR",
    "postcode": "F23 KD96",
    "coordinates": "53.8581869, -9.2966292",
    "lat": "53.8581869",
    "lng": -9.2966292
  },
  {
    "name": "FOUR PROVINCES",
    "location": "DUBLIN",
    "postcode": "D12 X965",
    "coordinates": "53.3146126, -6.3001333",
    "lat": "53.3146126",
    "lng": -6.3001333
  },
  {
    "name": "FRONT ROOM",
    "location": "TUAM",
    "postcode": "H54 DY61",
    "coordinates": "53.5146625, -8.8521135",
    "lat": "53.5146625",
    "lng": -8.8521135
  },
  {
    "name": "GATE BAR",
    "location": "LIMERICK",
    "postcode": "V94 W623",
    "coordinates": "52.6661387, -8.6195224",
    "lat": "52.6661387",
    "lng": -8.6195224
  },
  {
    "name": "GERTIE BROWN BAR AND BITES",
    "location": "ATHLONE",
    "postcode": "N37 E142",
    "coordinates": null,
    "lat": null,
    "lng": null
  },
  {
    "name": "GILLERANS",
    "location": "WESTMEATH",
    "postcode": "N91 WD53",
    "coordinates": "53.5273315, -7.340515300000001",
    "lat": "53.5273315",
    "lng": -7.3405153
  },
  {
    "name": "GLENMALURE LODGE",
    "location": "GLENMALURE",
    "postcode": "Y14 TF43",
    "coordinates": "52.7947924, -6.4520423",
    "lat": "52.7947924",
    "lng": -6.4520423
  },
  {
    "name": "GORMET FOOD PARLOUR (DUN LAOGHAIRE)",
    "location": "DUNLAOGHAIRE",
    "postcode": "A96 E9P7",
    "coordinates": "53.2948089, -6.135512599999999",
    "lat": "53.2948089",
    "lng": -6.1355126
  },
  {
    "name": "GORMET FOOD PARLOUR (SWORDS)",
    "location": "SWORDS",
    "postcode": "K67 P825",
    "coordinates": "53.4637049, -6.2178637",
    "lat": "53.4637049",
    "lng": -6.2178637
  },
  {
    "name": "GOURMET FOOD PARLOUR",
    "location": "SANTRY",
    "postcode": "D09 P832",
    "coordinates": "53.40414999999999, -6.242513000000001",
    "lat": "53.40415",
    "lng": -6.242513
  },
  {
    "name": "GOURMET FOOD PARLOUR DUNSHAUGHLINE",
    "location": "DUNSHAUGHLIN",
    "postcode": "A85 EC44",
    "coordinates": "53.5133034, -6.5402444",
    "lat": "53.5133034",
    "lng": -6.5402444
  },
  {
    "name": "GRAFTON HOTEL",
    "location": "DUBLIN",
    "postcode": "D02 WV05",
    "coordinates": "53.34111979999999, -6.2640747",
    "lat": "53.3411198",
    "lng": -6.2640747
  },
  {
    "name": "GREVILLE ARMS HOTEL",
    "location": "MULLINGAR",
    "postcode": "N91 X9RN",
    "coordinates": "53.5257405, -7.340934999999999",
    "lat": "53.5257405",
    "lng": -7.340935
  },
  {
    "name": "GREYHOUND INN",
    "location": "BLANCHARDSTOWN",
    "postcode": "D15 X5WK",
    "coordinates": "53.3878515, -6.3788711",
    "lat": "53.3878515",
    "lng": -6.3788711
  },
  {
    "name": "GROVE BAR",
    "location": "ENNIS",
    "postcode": "V95 E03Y",
    "coordinates": "52.8566886, -8.9596085",
    "lat": "52.8566886",
    "lng": -8.9596085
  },
  {
    "name": "GURNS MILESTONE BAR",
    "location": "MANORHAMILTON",
    "postcode": "F91 A592",
    "coordinates": "54.30488709999999, -8.176449999999999",
    "lat": "54.3048871",
    "lng": -8.17645
  },
  {
    "name": "HANLEYS BAR",
    "location": "CLAREMORRIS",
    "postcode": "F12 D668",
    "coordinates": "53.7208518, -8.9984462",
    "lat": "53.7208518",
    "lng": -8.9984462
  },
  {
    "name": "HARBOUR BAR",
    "location": "ARKLOW",
    "postcode": "Y14 K7W8",
    "coordinates": "52.7954531, -6.151898699999999",
    "lat": "52.7954531",
    "lng": -6.1518987
  },
  {
    "name": "HARP TAVERN",
    "location": "SLIGO",
    "postcode": "F91 AV97",
    "coordinates": "54.2735367, -8.4767197",
    "lat": "54.2735367",
    "lng": -8.4767197
  },
  {
    "name": "HARRY BYRNES",
    "location": "CLONTARF",
    "postcode": "D03",
    "coordinates": null,
    "lat": null,
    "lng": null
  },
  {
    "name": "HATTONS",
    "location": "KILCOCK",
    "postcode": "W23 D7P4",
    "coordinates": "53.450379, -6.7047148",
    "lat": "53.450379",
    "lng": -6.7047148
  },
  {
    "name": "HENNESSYS BAR",
    "location": "TRALEE",
    "postcode": "V92 V211",
    "coordinates": "52.2691077, -9.702351799999999",
    "lat": "52.2691077",
    "lng": -9.7023518
  },
  {
    "name": "HENRYS HAVEN",
    "location": "DRUMSHANBO",
    "postcode": "N41 WP30",
    "coordinates": "54.0478782, -8.0400069",
    "lat": "54.0478782",
    "lng": -8.0400069
  },
  {
    "name": "HOUSE",
    "location": "DUBLIN CITY",
    "postcode": "D02 V306",
    "coordinates": "53.3340664, -6.2551811",
    "lat": "53.3340664",
    "lng": -6.2551811
  },
  {
    "name": "HOUSE LIMERICK",
    "location": "LIMERICK",
    "postcode": "V94 X4DK",
    "coordinates": "52.6629837, -8.6308827",
    "lat": "52.6629837",
    "lng": -8.6308827
  },
  {
    "name": "HYNE'S BAR",
    "location": "DUBLIN",
    "postcode": "D07 E1RD",
    "coordinates": "53.3542425, -6.2867225",
    "lat": "53.3542425",
    "lng": -6.2867225
  },
  {
    "name": "IGO INN",
    "location": "BALLYBRACK",
    "postcode": "A96 YY32",
    "coordinates": "53.252576, -6.1233342",
    "lat": "53.252576",
    "lng": -6.1233342
  },
  {
    "name": "IMPALA",
    "location": "CORK",
    "postcode": "T12 T85H",
    "coordinates": "51.8981907, -8.4779723",
    "lat": "51.8981907",
    "lng": -8.4779723
  },
  {
    "name": "IRISH FILM INSTITUTE",
    "location": "TEMPLE BAR",
    "postcode": "D02 PD85",
    "coordinates": "53.3446238, -6.264947599999999",
    "lat": "53.3446238",
    "lng": -6.2649476
  },
  {
    "name": "IRISHTOWN HOUSE",
    "location": "DUBLIN 4",
    "postcode": "D04 Y9P3",
    "coordinates": "53.33991839999999, -6.2233196",
    "lat": "53.3399184",
    "lng": -6.2233196
  },
  {
    "name": "JAR",
    "location": "DUBLIN CITY",
    "postcode": "D02 K232",
    "coordinates": "53.33693, -6.2657894",
    "lat": "53.33693",
    "lng": -6.2657894
  },
  {
    "name": "JASMINE PALACE",
    "location": "LIMERICK",
    "postcode": "V94 N8CC",
    "coordinates": "52.66199040000001, -8.6283282",
    "lat": "52.6619904",
    "lng": -8.6283282
  },
  {
    "name": "JOHN LEES",
    "location": "TULLAMORE",
    "postcode": "R35 Y161",
    "coordinates": "53.27484889999999, -7.490413899999999",
    "lat": "53.2748489",
    "lng": -7.4904139
  },
  {
    "name": "JUNO",
    "location": "DUBLIN",
    "postcode": "D01 EP86",
    "coordinates": "53.3610669, -6.259538999999999",
    "lat": "53.3610669",
    "lng": -6.259539
  },
  {
    "name": "KAVANAGHS",
    "location": "MARINO",
    "postcode": "D03 V066",
    "coordinates": "53.3656886, -6.228803399999999",
    "lat": "53.3656886",
    "lng": -6.2288034
  },
  {
    "name": "KAVANAGHS OF CASTLEKNOCK",
    "location": "CASTLEKNOCK",
    "postcode": "D15 X70K",
    "coordinates": "53.37774289999999, -6.3765632",
    "lat": "53.3777429",
    "lng": -6.3765632
  },
  {
    "name": "KEALYS",
    "location": "CLOGHRAN",
    "postcode": "",
    "coordinates": null,
    "lat": null,
    "lng": null
  },
  {
    "name": "KICKING DONKEY",
    "location": "BUNDORAN",
    "postcode": "F94 YTR9",
    "coordinates": "54.4788255, -8.2779993",
    "lat": "54.4788255",
    "lng": -8.2779993
  },
  {
    "name": "KODIAK",
    "location": "DUBLIN 6",
    "postcode": "D06 W3Y1",
    "coordinates": "53.3217803, -6.2655381",
    "lat": "53.3217803",
    "lng": -6.2655381
  },
  {
    "name": "LANDMARK",
    "location": "DUBLIN CITY",
    "postcode": "D02 CH68",
    "coordinates": "53.337412, -6.2659255",
    "lat": "53.337412",
    "lng": -6.2659255
  },
  {
    "name": "LEVIS CORNER HOUSE",
    "location": "BALLYDEHOB",
    "postcode": "P81 RC03",
    "coordinates": "51.56259780000001, -9.460348999999999",
    "lat": "51.5625978",
    "lng": -9.460349
  },
  {
    "name": "LIVING ROOM",
    "location": "DUBLIN",
    "postcode": "D01 V082",
    "coordinates": "53.3523478, -6.2604257",
    "lat": "53.3523478",
    "lng": -6.2604257
  },
  {
    "name": "LOMBARD",
    "location": "DUBLIN CITY",
    "postcode": "D02 R276",
    "coordinates": "53.3442331, -6.2489906",
    "lat": "53.3442331",
    "lng": -6.2489906
  },
  {
    "name": "LYSTER BAR",
    "location": "DUBLIN",
    "postcode": "D6W RF44",
    "coordinates": "53.3216731, -6.2796623",
    "lat": "53.3216731",
    "lng": -6.2796623
  },
  {
    "name": "LYSTERS ROCHFORTBRIDGE",
    "location": "ROCHFORTBRIDGE",
    "postcode": "N91 PW97",
    "coordinates": "53.4142893, -7.300617099999998",
    "lat": "53.4142893",
    "lng": -7.3006171
  },
  {
    "name": "MACS BAR",
    "location": "BUNRATTY",
    "postcode": "V95 RD25",
    "coordinates": "52.945307, -9.0648659",
    "lat": "52.945307",
    "lng": -9.0648659
  },
  {
    "name": "MAISON MOLI",
    "location": "BRAY",
    "postcode": "A98 C6D2",
    "coordinates": "53.2016709, -6.0980781",
    "lat": "53.2016709",
    "lng": -6.0980781
  },
  {
    "name": "MANHATTAN BEER AND FOOD CO.",
    "location": "DUBLIN",
    "postcode": "D05 T9K8",
    "coordinates": "53.38056760000001, -6.1748708",
    "lat": "53.3805676",
    "lng": -6.1748708
  },
  {
    "name": "MANNIONS BAR",
    "location": "BALLA",
    "postcode": "F23 CF53",
    "coordinates": "53.8037232, -9.1307941",
    "lat": "53.8037232",
    "lng": -9.1307941
  },
  {
    "name": "MARINE CELTIC BAR",
    "location": "BUNDORAN",
    "postcode": "F94 AX07",
    "coordinates": "54.4764564, -8.2868367",
    "lat": "54.4764564",
    "lng": -8.2868367
  },
  {
    "name": "MARKET BAR",
    "location": "DUNDALK",
    "postcode": "A91 TR20",
    "coordinates": "54.0047085, -6.40273",
    "lat": "54.0047085",
    "lng": -6.40273
  },
  {
    "name": "MARLIN HOTEL",
    "location": "DUBLIN 2",
    "postcode": "D02 AY81",
    "coordinates": "53.3397678, -6.264482",
    "lat": "53.3397678",
    "lng": -6.264482
  },
  {
    "name": "MARTELLO",
    "location": "BRAY",
    "postcode": "A98 P7X4",
    "coordinates": "53.2019913, -6.098331",
    "lat": "53.2019913",
    "lng": -6.098331
  },
  {
    "name": "MARY O CONNELL BAR",
    "location": "BALLINCOLLIG",
    "postcode": "P31 TW88",
    "coordinates": "51.8878673, -8.589425",
    "lat": "51.8878673",
    "lng": -8.589425
  },
  {
    "name": "MCEVOYS PUB HAZELHATCH",
    "location": "NEWCASTLE",
    "postcode": "W23 T0FW",
    "coordinates": "53.3181222, -6.5186551",
    "lat": "53.3181222",
    "lng": -6.5186551
  },
  {
    "name": "MCGETTIGAN'S LIMERICK",
    "location": "LIMERICK",
    "postcode": "V94 NH93",
    "coordinates": "52.66087109999999, -8.6329948",
    "lat": "52.6608711",
    "lng": -8.6329948
  },
  {
    "name": "MCGOWANS OF PHIBSBOROUGH",
    "location": "PHIBSBOROUGH",
    "postcode": "D07 A562",
    "coordinates": "53.35658609999999, -6.2739606",
    "lat": "53.3565861",
    "lng": -6.2739606
  },
  {
    "name": "MCMAHONS",
    "location": "MAYNOOTH",
    "postcode": "W23 X3D8",
    "coordinates": "53.3815739, -6.590227700000001",
    "lat": "53.3815739",
    "lng": -6.5902277
  },
  {
    "name": "MCS AND HARVEY",
    "location": "BRAY",
    "postcode": "A98 NP92",
    "coordinates": "53.1918568, -6.1051796",
    "lat": "53.1918568",
    "lng": -6.1051796
  },
  {
    "name": "MERCADO 52 JUANITOS",
    "location": "DUBLIN",
    "postcode": "D02 PX38",
    "coordinates": "53.3416559, -6.2626734",
    "lat": "53.3416559",
    "lng": -6.2626734
  },
  {
    "name": "MERRION INN",
    "location": "DUBLIN",
    "postcode": "D04 Y512",
    "coordinates": "53.3184172, -6.2111768",
    "lat": "53.3184172",
    "lng": -6.2111768
  },
  {
    "name": "MERRY COBBLER",
    "location": "DUBLIN",
    "postcode": "D04 H6W7",
    "coordinates": "53.338604, -6.222598",
    "lat": "53.338604",
    "lng": -6.222598
  },
  {
    "name": "MERRYS GASTRO PUB",
    "location": "DUNGARVAN",
    "postcode": "X35 HW71",
    "coordinates": "52.08880629999999, -7.6175046",
    "lat": "52.0888063",
    "lng": -7.6175046
  },
  {
    "name": "MIDLANDS PARK HOTEL",
    "location": "PORTLAOISE",
    "postcode": "R32 KV20",
    "coordinates": "53.0349156, -7.3030472",
    "lat": "53.0349156",
    "lng": -7.3030472
  },
  {
    "name": "MILLRACE",
    "location": "DRUMSHANBO",
    "postcode": "N41 R2F9",
    "coordinates": "54.0478298, -8.0409738",
    "lat": "54.0478298",
    "lng": -8.0409738
  },
  {
    "name": "MONKS SOCIETY",
    "location": "ENNIS",
    "postcode": "V95 K88N",
    "coordinates": "52.8462457, -8.9817143",
    "lat": "52.8462457",
    "lng": -8.9817143
  },
  {
    "name": "MONROES LIVE",
    "location": "GALWAY CITY",
    "postcode": "H91 WD2H",
    "coordinates": "53.2699727, -9.0577692",
    "lat": "53.2699727",
    "lng": -9.0577692
  },
  {
    "name": "MOORINGS",
    "location": "DUNGARVAN",
    "postcode": "X35 Y409",
    "coordinates": "52.0895595, -7.6171013",
    "lat": "52.0895595",
    "lng": -7.6171013
  },
  {
    "name": "MORANS BAR",
    "location": "SLIGO",
    "postcode": "F91 T3YA",
    "coordinates": "54.3932251, -8.523559299999999",
    "lat": "54.3932251",
    "lng": -8.5235593
  },
  {
    "name": "MRS ROBINSONS",
    "location": "GREYSTONES",
    "postcode": "A63 D340",
    "coordinates": "53.144957, -6.0639027",
    "lat": "53.144957",
    "lng": -6.0639027
  },
  {
    "name": "NAGLES BAR",
    "location": "DUNGARVAN",
    "postcode": "X35 CX89",
    "coordinates": "52.0894287, -7.620501399999998",
    "lat": "52.0894287",
    "lng": -7.6205014
  },
  {
    "name": "NCO MESS BAR",
    "location": "ATHLONE",
    "postcode": "N37 KT59",
    "coordinates": "53.4228022, -7.9491138",
    "lat": "53.4228022",
    "lng": -7.9491138
  },
  {
    "name": "NEALONS",
    "location": "DUBLIN",
    "postcode": "D01 XD72",
    "coordinates": "53.3463644, -6.2681898",
    "lat": "53.3463644",
    "lng": -6.2681898
  },
  {
    "name": "NEPTUNE",
    "location": "BLACKROCK",
    "postcode": "A91 TV25",
    "coordinates": "53.96387929999999, -6.3657844",
    "lat": "53.9638793",
    "lng": -6.3657844
  },
  {
    "name": "NS PUBLIC H0USE LTD T/A BREEN'S BAR",
    "location": "GROREY",
    "postcode": "Y25 K6K3",
    "coordinates": "52.6765443, -6.293506199999999",
    "lat": "52.6765443",
    "lng": -6.2935062
  },
  {
    "name": "O BRIEN S INN",
    "location": "ENNISCORTHY",
    "postcode": "Y21 HF54",
    "coordinates": "52.4607807, -6.5006876",
    "lat": "52.4607807",
    "lng": -6.5006876
  },
  {
    "name": "O CONNORS",
    "location": "KELLS",
    "postcode": "A82 R7N3",
    "coordinates": "53.7261898, -6.8778668",
    "lat": "53.7261898",
    "lng": -6.8778668
  },
  {
    "name": "O DS BAR",
    "location": "BELMULLET",
    "postcode": "F26 H0K8",
    "coordinates": "54.2238852, -9.9885965",
    "lat": "54.2238852",
    "lng": -9.9885965
  },
  {
    "name": "O DWYERS",
    "location": "VIRGINIA",
    "postcode": "A82 C2N6",
    "coordinates": "53.7925846, -7.0666045",
    "lat": "53.7925846",
    "lng": -7.0666045
  },
  {
    "name": "O NEILLS BAR",
    "location": "DUN LOAGHAIRE",
    "postcode": "A96 HP60",
    "coordinates": "53.29177139999999, -6.135148999999999",
    "lat": "53.2917714",
    "lng": -6.135149
  },
  {
    "name": "O'CONNORS PUB",
    "location": "DUBLIN CITY",
    "postcode": "D02 H6K6",
    "coordinates": "53.33833809999999, -6.2432628",
    "lat": "53.3383381",
    "lng": -6.2432628
  },
  {
    "name": "O'DEA'S BAR AND BISTRO",
    "location": "PORTARLINGTON",
    "postcode": "R32 ECX3",
    "coordinates": "53.1571558, -7.1847604",
    "lat": "53.1571558",
    "lng": -7.1847604
  },
  {
    "name": "O'NEILLS VICTORIAN TOWNHOUSE",
    "location": "DUBLIN 2",
    "postcode": "D02 VX62",
    "coordinates": "53.3449095, -6.252438499999999",
    "lat": "53.3449095",
    "lng": -6.2524385
  },
  {
    "name": "O'REILLYS BAR AND KITCHEN",
    "location": "GALWAY",
    "postcode": "H91 PTD9",
    "coordinates": "53.259588, -9.0766599",
    "lat": "53.259588",
    "lng": -9.0766599
  },
  {
    "name": "OARSMAN",
    "location": "RINGSEND",
    "postcode": "D04 N294",
    "coordinates": "53.3416547, -6.2278646",
    "lat": "53.3416547",
    "lng": -6.2278646
  },
  {
    "name": "OCONNORS",
    "location": "WICKLOW",
    "postcode": "A67 EH58",
    "coordinates": "52.9810984, -6.0485964",
    "lat": "52.9810984",
    "lng": -6.0485964
  },
  {
    "name": "ODEON",
    "location": "DUBLIN CITY",
    "postcode": "D02 VE22",
    "coordinates": "53.3334457, -6.2624381",
    "lat": "53.3334457",
    "lng": -6.2624381
  },
  {
    "name": "ODWYERS KILMACUD",
    "location": "STILLORGAN",
    "postcode": "A94 TN99",
    "coordinates": "53.288617, -6.216163099999999",
    "lat": "53.288617",
    "lng": -6.2161631
  },
  {
    "name": "OKRA GREEN",
    "location": "CASTLEKNOCK",
    "postcode": "D15",
    "coordinates": null,
    "lat": null,
    "lng": null
  },
  {
    "name": "OLD IMPERIAL HOTEL",
    "location": "YOUGHAL",
    "postcode": "P36 K006",
    "coordinates": "51.95552379999999, -7.850097499999999",
    "lat": "51.9555238",
    "lng": -7.8500975
  },
  {
    "name": "OLD ORCHARD",
    "location": "RATHFARNHAM",
    "postcode": "D14 RF96",
    "coordinates": "53.2946884, -6.2992746",
    "lat": "53.2946884",
    "lng": -6.2992746
  },
  {
    "name": "OLD PUNCHBOWL",
    "location": "BOOTERSTOWN",
    "postcode": "A94 X2C6",
    "coordinates": "53.30874559999999, -6.1967466",
    "lat": "53.3087456",
    "lng": -6.1967466
  },
  {
    "name": "OLLIES BAR AND LOUNGE",
    "location": "SANDYFORD",
    "postcode": "D16 H363",
    "coordinates": "53.2767782, -6.2240537",
    "lat": "53.2767782",
    "lng": -6.2240537
  },
  {
    "name": "OSULLIVANS BAR",
    "location": "BRAY",
    "postcode": "A98 AF86",
    "coordinates": "53.206177, -6.110424",
    "lat": "53.206177",
    "lng": -6.110424
  },
  {
    "name": "OWEN ROES",
    "location": "BALLYSHANNON",
    "postcode": "F94 K519",
    "coordinates": "54.4996836, -8.1893278",
    "lat": "54.4996836",
    "lng": -8.1893278
  },
  {
    "name": "OYSTER TAVERN",
    "location": "CORK CITY",
    "postcode": "T12 NP29",
    "coordinates": "51.8979077, -8.474535399999999",
    "lat": "51.8979077",
    "lng": -8.4745354
  },
  {
    "name": "PALM",
    "location": "BRAY",
    "postcode": "A98 H6Y2",
    "coordinates": "53.2018047, -6.098203799999999",
    "lat": "53.2018047",
    "lng": -6.0982038
  },
  {
    "name": "PAWNSHOP",
    "location": "DUBLIN",
    "postcode": "D02 KD74",
    "coordinates": "53.34406079999999, -6.2652683",
    "lat": "53.3440608",
    "lng": -6.2652683
  },
  {
    "name": "PEMBROKE CRICKET CLUB",
    "location": "SANDYMOUNT",
    "postcode": "D04 C9Y3",
    "coordinates": "53.3255782, -6.2151571",
    "lat": "53.3255782",
    "lng": -6.2151571
  },
  {
    "name": "PETES PUBLIC HOUSE LTD",
    "location": "MOATE",
    "postcode": "N37 A6F6",
    "coordinates": "53.39511479999999, -7.7183474",
    "lat": "53.3951148",
    "lng": -7.7183474
  },
  {
    "name": "PIZZERIA DEL CAPITANO",
    "location": "TULLAMORE",
    "postcode": "R35 A9W3",
    "coordinates": "53.274601, -7.49682",
    "lat": "53.274601",
    "lng": -7.49682
  },
  {
    "name": "PJ FLAHERTYS BAR",
    "location": "GALWAY",
    "postcode": "H91 R26K",
    "coordinates": "53.26638730000001, -9.0711914",
    "lat": "53.2663873",
    "lng": -9.0711914
  },
  {
    "name": "PORTLEYS",
    "location": "LIMERICK",
    "postcode": "V94 T6X8",
    "coordinates": "52.6661233, -8.619888699999999",
    "lat": "52.6661233",
    "lng": -8.6198887
  },
  {
    "name": "PORTMARNOCK HOTEL AND GOLF LINKS",
    "location": "PORTMARNOCK",
    "postcode": "D13 V2X7",
    "coordinates": "53.4296515, -6.1263923",
    "lat": "53.4296515",
    "lng": -6.1263923
  },
  {
    "name": "PVS FALLON",
    "location": "LONGFORD",
    "postcode": "N39 P9F6",
    "coordinates": "53.7261462, -7.799646699999998",
    "lat": "53.7261462",
    "lng": -7.7996467
  },
  {
    "name": "RAILWAY SOCIAL CLUB",
    "location": "ROSSLARE HARBOUR",
    "postcode": "Y35 EC60",
    "coordinates": "52.2488389, -6.336632499999999",
    "lat": "52.2488389",
    "lng": -6.3366325
  },
  {
    "name": "RAMBLING HOUSE",
    "location": "LAGHEY",
    "postcode": "F94 Y048",
    "coordinates": "54.61745310000001, -8.0861853",
    "lat": "54.6174531",
    "lng": -8.0861853
  },
  {
    "name": "RENDEZVOUS BAR",
    "location": "BALLA",
    "postcode": "F23 E897",
    "coordinates": "53.80406989999999, -9.1302595",
    "lat": "53.8040699",
    "lng": -9.1302595
  },
  {
    "name": "ROCCO STONE LTD",
    "location": "GALWAY CITY",
    "postcode": "H91 VK27",
    "coordinates": "53.27555359999999, -9.0490222",
    "lat": "53.2755536",
    "lng": -9.0490222
  },
  {
    "name": "ROCHESTOWNLODGE HOTEL",
    "location": "DUN LOAGHAIRE",
    "postcode": "A96 ETY8",
    "coordinates": "53.2693446, -6.141813099999999",
    "lat": "53.2693446",
    "lng": -6.1418131
  },
  {
    "name": "RUSSELS SALOON EMPORIUM",
    "location": "DUNDALK",
    "postcode": "A91 H210",
    "coordinates": "54.0021773, -6.4041321",
    "lat": "54.0021773",
    "lng": -6.4041321
  },
  {
    "name": "SALLY LONGS",
    "location": "GALWAY",
    "postcode": "H91 F2RV",
    "coordinates": "53.2740213, -9.053671399999999",
    "lat": "53.2740213",
    "lng": -9.0536714
  },
  {
    "name": "SALLY ROGERS BAR",
    "location": "TRIM",
    "postcode": "C15 XKT5",
    "coordinates": "53.55590979999999, -6.791231799999999",
    "lat": "53.5559098",
    "lng": -6.7912318
  },
  {
    "name": "SALMON LEAP",
    "location": "LEIXLIP",
    "postcode": "W23 W32H",
    "coordinates": "53.3486572, -6.5107174",
    "lat": "53.3486572",
    "lng": -6.5107174
  },
  {
    "name": "SCANLONS",
    "location": "KNOCKADERRY",
    "postcode": "V42",
    "coordinates": null,
    "lat": null,
    "lng": null
  },
  {
    "name": "SCHOLARS",
    "location": "DUBLIN",
    "postcode": "D24 X67W",
    "coordinates": "53.2748273, -6.345135",
    "lat": "53.2748273",
    "lng": -6.345135
  },
  {
    "name": "SEAN OGS BAR",
    "location": "GWEEDORE",
    "postcode": "F93 XY36",
    "coordinates": "55.1896297, -7.0418965",
    "lat": "55.1896297",
    "lng": -7.0418965
  },
  {
    "name": "SELKIE",
    "location": "LEITRIM",
    "postcode": "F91 K38H",
    "coordinates": "54.4724634, -8.3216761",
    "lat": "54.4724634",
    "lng": -8.3216761
  },
  {
    "name": "SEVEN ARCHES BAR",
    "location": "LAGHEY",
    "postcode": "F94 NY67",
    "coordinates": "54.61800239999999, -8.0865268",
    "lat": "54.6180024",
    "lng": -8.0865268
  },
  {
    "name": "SEXTONS BAR",
    "location": "LIMERICK",
    "postcode": "V94 CA29",
    "coordinates": "52.6589385, -8.6339434",
    "lat": "52.6589385",
    "lng": -8.6339434
  },
  {
    "name": "SHAKESPEARE",
    "location": "DUBLIN CITY",
    "postcode": "D07 YK6A",
    "coordinates": "53.3460291, -6.2695725",
    "lat": "53.3460291",
    "lng": -6.2695725
  },
  {
    "name": "SHAMROCK",
    "location": "BALLYBOFEY",
    "postcode": "F93 TW6P",
    "coordinates": "54.79948169999999, -7.783357599999999",
    "lat": "54.7994817",
    "lng": -7.7833576
  },
  {
    "name": "SHIBEEN",
    "location": "DOORA",
    "postcode": "V95 RW31",
    "coordinates": "52.8327276, -8.9195792",
    "lat": "52.8327276",
    "lng": -8.9195792
  },
  {
    "name": "SHOUK",
    "location": "DRUMCONDRA",
    "postcode": "D09 V5R9",
    "coordinates": "53.3634923, -6.2582282",
    "lat": "53.3634923",
    "lng": -6.2582282
  },
  {
    "name": "SIMON LAMBERT AND SONS",
    "location": "WEXFORD",
    "postcode": "Y35 H725",
    "coordinates": "52.337056, -6.460794399999999",
    "lat": "52.337056",
    "lng": -6.4607944
  },
  {
    "name": "SLIGE MOR",
    "location": "ENFIELD",
    "postcode": "A83 PK72",
    "coordinates": "53.4144671, -6.831159400000001",
    "lat": "53.4144671",
    "lng": -6.8311594
  },
  {
    "name": "SMYTHS OF RANELAGH",
    "location": "DUBLIN 6",
    "postcode": "D06",
    "coordinates": null,
    "lat": null,
    "lng": null
  },
  {
    "name": "SON OF A BUN",
    "location": "CORK CITY",
    "postcode": "T23 NX05",
    "coordinates": "51.9014773, -8.4695608",
    "lat": "51.9014773",
    "lng": -8.4695608
  },
  {
    "name": "STAIRWELL",
    "location": "ATHLONE",
    "postcode": "N37 R5V9",
    "coordinates": "53.42294529999999, -7.936061899999999",
    "lat": "53.4229453",
    "lng": -7.9360619
  },
  {
    "name": "STAMPS",
    "location": "WEXFORD",
    "postcode": "Y21 NH52",
    "coordinates": "52.5016246, -6.5683585",
    "lat": "52.5016246",
    "lng": -6.5683585
  },
  {
    "name": "STEP INN",
    "location": "STEPASIDE",
    "postcode": "D18 F248",
    "coordinates": "53.2530795, -6.2141441",
    "lat": "53.2530795",
    "lng": -6.2141441
  },
  {
    "name": "STRAND BAR",
    "location": "STRANDHILL",
    "postcode": "F91 C5VW",
    "coordinates": "54.2706883, -8.6084321",
    "lat": "54.2706883",
    "lng": -8.6084321
  },
  {
    "name": "STRAND BAY HOTEL",
    "location": "BRAY",
    "postcode": "A98 PD00",
    "coordinates": "53.1985645, -6.0957442",
    "lat": "53.1985645",
    "lng": -6.0957442
  },
  {
    "name": "SUMMERHILL COMMUNITY CENTRE",
    "location": "SUMMERHILL",
    "postcode": "A83 NR25",
    "coordinates": "53.47933829999999, -6.734269599999999",
    "lat": "53.4793383",
    "lng": -6.7342696
  },
  {
    "name": "TARA HOTEL KILLYBEGS",
    "location": "KILLYBEGS",
    "postcode": "F94 V1WP",
    "coordinates": "54.63685169999999, -8.440952",
    "lat": "54.6368517",
    "lng": -8.440952
  },
  {
    "name": "TEQUILA JACKS BAR AND RESTAURANT",
    "location": "LAPPS QUAY",
    "postcode": "T12 VF82",
    "coordinates": "51.898201, -8.4668117",
    "lat": "51.898201",
    "lng": -8.4668117
  },
  {
    "name": "THE COLLIEMORE",
    "location": "DUBLIN",
    "postcode": "A96 HE22",
    "coordinates": "53.2770772, -6.103051799999999",
    "lat": "53.2770772",
    "lng": -6.1030518
  },
  {
    "name": "THE GREAT NORTHERN HOTEL",
    "location": "BUNDORAN",
    "postcode": "F94 YX30",
    "coordinates": "54.4854123, -8.2766676",
    "lat": "54.4854123",
    "lng": -8.2766676
  },
  {
    "name": "THE OL 55",
    "location": "GALWAY",
    "postcode": "H91 X002",
    "coordinates": "53.2762079, -9.0476768",
    "lat": "53.2762079",
    "lng": -9.0476768
  },
  {
    "name": "THOMOND BAR",
    "location": "CORK CITY",
    "postcode": "T12 NF84",
    "coordinates": "51.8979009, -8.4726939",
    "lat": "51.8979009",
    "lng": -8.4726939
  },
  {
    "name": "THUNDER ROAD CAFE",
    "location": "DUBLIN CITY",
    "postcode": "D02 A375",
    "coordinates": "53.3455771, -6.261235",
    "lat": "53.3455771",
    "lng": -6.261235
  },
  {
    "name": "TIGH N TAILLIURA",
    "location": "CARRAROE",
    "postcode": "H91 X7YK",
    "coordinates": "53.263977, -9.598209899999999",
    "lat": "53.263977",
    "lng": -9.5982099
  },
  {
    "name": "TOM BARRYS",
    "location": "CORK",
    "postcode": "T12 RT44",
    "coordinates": "51.8936414, -8.478202",
    "lat": "51.8936414",
    "lng": -8.478202
  },
  {
    "name": "TONERS",
    "location": "DUBLIN",
    "postcode": "D02 N231",
    "coordinates": "53.3377308, -6.252475",
    "lat": "53.3377308",
    "lng": -6.252475
  },
  {
    "name": "TRAP BAR",
    "location": "CLARA",
    "postcode": "R35 K4N2",
    "coordinates": "53.22973959999999, -7.778525799999999",
    "lat": "53.2297396",
    "lng": -7.7785258
  },
  {
    "name": "TWO SISTERS",
    "location": "DUBLIN",
    "postcode": "D6W P274",
    "coordinates": "53.3091281, -6.3054647",
    "lat": "53.3091281",
    "lng": -6.3054647
  },
  {
    "name": "VILLAGE INN",
    "location": "KERRYKEEL",
    "postcode": "F92 F782",
    "coordinates": "55.1380742, -7.666677099999999",
    "lat": "55.1380742",
    "lng": -7.6666771
  },
  {
    "name": "VINEGAR MAN",
    "location": "DUNDALK",
    "postcode": "A91 YF40",
    "coordinates": "54.0031405, -6.4015492",
    "lat": "54.0031405",
    "lng": -6.4015492
  },
  {
    "name": "VISCOUNT",
    "location": "WHITEHALL",
    "postcode": "D09 E1T1",
    "coordinates": "53.3809706, -6.245787099999999",
    "lat": "53.3809706",
    "lng": -6.2457871
  },
  {
    "name": "WARDS",
    "location": "CLAREMORRIS",
    "postcode": "F12 V6K1",
    "coordinates": null,
    "lat": null,
    "lng": null
  },
  {
    "name": "WATERLOO",
    "location": "DUBLIN CITY",
    "postcode": "D04 R6Y6",
    "coordinates": "53.3335046, -6.243086700000001",
    "lat": "53.3335046",
    "lng": -6.2430867
  },
  {
    "name": "WELL",
    "location": "DUBLIN 2",
    "postcode": "D02 K597",
    "coordinates": "53.3395677, -6.2613328",
    "lat": "53.3395677",
    "lng": -6.2613328
  },
  {
    "name": "WEST WICKLOW HOUSE",
    "location": "BLESSINGTON",
    "postcode": "W91 XW44",
    "coordinates": "53.1715421, -6.5319585",
    "lat": "53.1715421",
    "lng": -6.5319585
  },
  {
    "name": "WHISTLING PIG",
    "location": "CELBRIDGE",
    "postcode": "W23 TW98",
    "coordinates": "53.33820499999999, -6.5402752",
    "lat": "53.338205",
    "lng": -6.5402752
  },
  {
    "name": "WICKED WOLF",
    "location": "BLACKROCK",
    "postcode": "A94 XD95",
    "coordinates": "53.30193269999999, -6.177984899999999",
    "lat": "53.3019327",
    "lng": -6.1779849
  },
  {
    "name": "WILD DUCK",
    "location": "DUBLIN",
    "postcode": "D02 HX30",
    "coordinates": "53.3445635, -6.2657712",
    "lat": "53.3445635",
    "lng": -6.2657712
  },
  {
    "name": "WILD GOOSE",
    "location": "BRAY",
    "postcode": "A98 E9H3",
    "coordinates": "53.2022437, -6.1103736",
    "lat": "53.2022437",
    "lng": -6.1103736
  },
  {
    "name": "WISHING WELL",
    "location": "BLACKROCK",
    "postcode": "A94 A6Y6",
    "coordinates": "53.2876367, -6.177797300000001",
    "lat": "53.2876367",
    "lng": -6.1777973
  },
  {
    "name": "WOLF TONE",
    "location": "LETTERKENNY",
    "postcode": "F92 H3CT",
    "coordinates": "54.9467351, -7.7398291",
    "lat": "54.9467351",
    "lng": -7.7398291
  },
  {
    "name": "WOODFORD",
    "location": "CORK CITY",
    "postcode": "T12 EK53",
    "coordinates": "51.8989264, -8.475604299999999",
    "lat": "51.8989264",
    "lng": -8.4756043
  },
  {
    "name": "XICO",
    "location": "DUBLIN CITY",
    "postcode": "D02 PH39",
    "coordinates": "53.3377979, -6.2529108",
    "lat": "53.3377979",
    "lng": -6.2529108
  }
]
